id,codigo,nome,capacidade_instalada,latitude,longitude,data_inicio_operacao,data_inicio_simulacao,subsistema_geografico,subsistema_eletrico
1,CEUFM,PRAIA_DE_FORMOSA,105.0,-2.9051,-41.0392,2009-08-26,2009-08-26,NE,NE
2,CEUCZ,ICARAIZINHO,54.6,-3.0179,-39.6741,2009-10-14,2009-10-14,NE,NE
3,CEUECQ,CANOA_QUEBRADA,57.0,-4.467,-37.758,2010-01-26,2010-01-26,NE,NE
4,CEUEBV,BONS_VENTOS,50.0,-4.4469,-37.7595,2010-02-11,2010-02-11,NE,NE
5,CEUEEN,ENACEL,31.5,-4.5097,-37.7608,2010-03-18,2010-03-18,NE,NE
6,CEUEPM,PRAIA_DO_MORGADO,28.8,-2.8151,-40.2348,2010-05-26,2010-05-26,NE,NE
7,CEUEVR,VOLTA_DO_RIO,42.0,-2.8514,-39.9658,2010-09-03,2010-09-03,NE,NE
8,RNUAU,ALEGRIA_I,51.0,-5.0942,-36.3631,2010-12-30,2010-12-30,NE,NE
9,RNUEM3,MANGUE_SECO_3,26.0,-5.1851,-36.361,2011-08-26,2011-08-26,NE,NE
10,RNUEM2,MANGUE_SECO_2,26.0,-5.1658,-36.3192,2011-09-24,2011-09-24,NE,NE
11,RNUEM1,MANGUE_SECO_1,26.0,-5.174,-36.3024,2011-09-30,2011-09-30,NE,NE
12,RNUEM5,MANGUE_SECO_5,26.0,-5.1675,-36.407,2011-11-01,2011-11-01,NE,NE
13,RNUAD,ALEGRIA_II,100.65,-5.1243,-36.3833,2011-12-30,2011-12-30,NE,NE
14,BAUEMC,MACAÚBAS,35.07,-12.3512,-42.3385,2012-07-06,2012-07-06,NE,NE
15,BAUENH,NOVO_HORIZONTE,30.06,-12.3124,-42.3511,2012-07-06,2012-07-06,NE,NE
16,BAUESR,SEABRA,30.06,-12.2742,-42.3662,2012-07-06,2012-07-06,NE,NE
17,BAUEPB,PEDRA_BRANCA,30.0,-9.8746,-41.0957,2013-03-02,2013-03-02,NE,NE
18,BAUEPL,SÃO_PEDRO_DO_LAGO,30.0,-9.8863,-41.1033,2013-03-02,2013-03-02,NE,NE
19,BAUESG,SETE_GAMELEIRAS,30.0,-9.8637,-41.1041,2013-03-26,2013-03-26,NE,NE
20,CEUEGU,GUAJIRÚ,30.004,-3.2632,-39.2159,2013-11-22,2013-11-22,NE,NE
21,CEUETR,TRAIRÍ,25.388,-3.2217,-39.29,2013-11-22,2013-11-22,NE,NE
22,CEUEFL,FLEIXEIRAS_I,30.004,-3.2011,-39.3647,2014-01-28,2014-01-28,NE,NE
23,RNUERT,REI_DOS_VENTOS_3,60.12,-5.1188,-36.1632,2014-02-01,2014-02-01,NE,NE
24,RNUERU,REI_DOS_VENTOS_1,58.45,-5.1009,-36.2021,2014-02-01,2014-02-01,NE,NE
25,RNUES3,MIASSABA_3,68.47,-5.1294,-36.4497,2014-02-01,2014-02-01,NE,NE
26,RNUEMT,MAR_E_TERRA,23.1,-4.964,-36.9147,2014-02-18,2014-02-18,NE,NE
27,RNUEAB,AREIA_BRANCA,27.3,-4.9686,-36.9009,2014-02-18,2014-02-18,NE,NE
28,CEUECJ,CAJUCOCO,30.0,-2.9158,-39.9544,2014-03-21,2014-03-21,NE,NE
29,CEUEID,ICARAÍ_II,37.8,-3.066,-39.5969,2014-03-28,2014-03-29,NE,NE
30,RNUER6,EURUS_VI,8.0,-5.2329,-35.9319,2014-03-29,2014-03-29,NE,NE
31,CEUEFU,FAÍSA_I,29.4,-3.3218,-39.2671,2014-03-29,2014-03-29,NE,NE
32,CEUEEM,EMBUACA,27.3,-3.2147,-39.3288,2014-03-29,2014-03-29,NE,NE
33,CEUEFQ,FAÍSA_IV,25.2,-3.3218,-39.2671,2014-03-29,2014-03-29,NE,NE
34,CEUEFT,FAÍSA_III,25.2,-3.3478,-39.2651,2014-03-29,2014-03-29,NE,NE
35,CEUEIU,ICARAÍ_I,27.3,-3.0812,-39.5949,2014-03-29,2014-03-29,NE,NE
36,RNCEM1,MORRO_DOS_VENTOS_I,28.8,-5.3628,-35.819,2014-03-29,2014-03-29,NE,NE
37,RNCEM3,MORRO_DOS_VENTOS_III,28.8,-5.3744,-35.8683,2014-03-29,2014-03-29,NE,NE
38,RNCEM4,MORRO_DOS_VENTOS_IV,28.8,-5.382,-35.8809,2014-03-29,2014-03-29,NE,NE
39,RNCEM6,MORRO_DOS_VENTOS_VI,28.8,-5.3437,-35.8783,2014-03-29,2014-03-29,NE,NE
40,RNCEM9,MORRO_DOS_VENTOS_IX,30.0,-5.3053,-35.9132,2014-03-29,2014-03-29,NE,NE
41,RNUEC1,SANTA_CLARA_I,30.0,-5.2432,-35.8988,2014-03-29,2014-03-29,NE,NE
42,RNUEC2,SANTA_CLARA_II,30.0,-5.2675,-35.9102,2014-03-29,2014-04-03,NE,NE
43,RNUEC3,SANTA_CLARA_III,30.0,-5.2688,-35.9036,2014-03-29,2014-03-29,NE,NE
44,RNUEC4,SANTA_CLARA_IV,30.0,-5.2394,-35.9135,2014-03-29,2014-04-03,NE,NE
45,RNUEC5,SANTA_CLARA_V,30.0,-5.2597,-35.9217,2014-03-29,2014-04-03,NE,NE
46,RNUEC6,SANTA_CLARA_VI,30.0,-5.2403,-35.927,2014-03-29,2014-03-29,NE,NE
47,CEUEMU,MUNDAÚ,30.004,-3.1936,-39.3746,2014-04-01,2014-04-01,NE,NE
48,CEUEBU,BURITI,30.0,-2.8853,-39.9839,2014-04-03,2014-04-03,NE,NE
49,RNUEV1,UNIÃO_DOS_VENTOS_1,22.4,-5.0774,-35.8398,2014-04-05,2014-04-15,NE,NE
50,RNUEV2,UNIÃO_DOS_VENTOS_2,22.4,-5.0806,-35.8258,2014-04-05,2014-04-05,NE,NE
51,RNUEV6,UNIÃO_DOS_VENTOS_6,12.8,-5.0946,-35.767,2014-04-05,2014-04-05,NE,NE
52,RNUEV7,UNIÃO_DOS_VENTOS_7,14.4,-5.0971,-35.752,2014-04-05,2014-04-05,NE,NE
53,RNUEV8,UNIÃO_DOS_VENTOS_8,14.4,-5.0727,-35.888,2014-04-05,2014-04-05,NE,NE
54,RNUEV9,UNIÃO_DOS_VENTOS_9,11.2,-5.0872,-35.887,2014-04-05,2014-04-05,NE,NE
55,RNUEVX,UNIÃO_DOS_VENTOS_10,14.4,-5.1072,-35.889,2014-04-05,2014-04-15,NE,NE
56,RNUEV3,UNIÃO_DOS_VENTOS_3,22.4,-5.0825,-35.81,2014-04-08,2014-04-08,NE,NE
57,RNUEV4,UNIÃO_DOS_VENTOS_4,11.2,-5.0903,-35.798,2014-04-08,2014-04-08,NE,NE
58,RNUEV5,UNIÃO_DOS_VENTOS_5,24.0,-5.0904,-35.782,2014-04-08,2014-04-08,NE,NE
59,CEUEAD,TAÍBA_ANDORINHA,14.7,-3.5287,-38.898,2014-06-19,2014-06-19,NE,NE
60,CEUEAG,TAÍBA_ÁGUIA,23.1,-3.5481,-38.8883,2014-06-19,2014-06-19,NE,NE
61,CEUECL,COLÔNIA,18.9,-3.5426,-38.8782,2014-06-19,2014-06-19,NE,NE
62,BAUEAV,ALVORADA,8.0,-14.1852,-42.5911,2014-07-04,2014-07-04,NE,NE
63,BAUECB,CANDIBA,9.6,-14.1857,-42.6466,2014-07-04,2014-07-04,NE,NE
64,BAUEGB,GUANAMBI,20.8,-14.2017,-42.6183,2014-07-04,2014-07-04,NE,NE
65,BAUEGP,GUIRAPÁ,28.8,-14.2189,-42.6414,2014-07-04,2014-07-04,NE,NE
66,BAUEIH,ILHÉUS,11.2,-13.8823,-42.6631,2014-07-04,2014-07-04,NE,NE
67,BAUEIP,IGAPORÃ,30.4,-13.8606,-42.6574,2014-07-04,2014-07-04,NE,NE
68,BAUELA,LICÍNIO_DE_ALMEIDA,24.0,-14.1769,-42.6541,2014-07-04,2014-07-04,NE,NE
69,BAUENC,NOSSA_SENHORA_DA_CON,28.8,-13.8957,-42.6769,2014-07-04,2014-07-04,NE,NE
70,BAUEPD,PINDAÍ,24.0,-14.2021,-42.6589,2014-07-04,2014-07-04,NE,NE
71,BAUEPS,PORTO_SEGURO,6.4,-13.8629,-42.6727,2014-07-04,2014-07-04,NE,NE
72,BAUEPT,PLANALTINA,27.2,-13.9879,-42.6389,2014-07-04,2014-07-04,NE,NE
73,BAUEPV,PAJEÚ_DO_VENTO,25.6,-14.0148,-42.6339,2014-07-04,2014-07-04,NE,NE
74,BAUERV,RIO_VERDE,30.4,-14.164,-42.6006,2014-07-04,2014-07-04,NE,NE
75,BAUESS,SERRA_DO_SALTO,19.2,-14.1555,-42.6382,2014-07-04,2014-07-04,NE,NE
76,CEUEFD,FAÍSA_II,27.3,-3.3189,-39.2397,2014-07-31,2014-07-31,NE,NE
77,CEUEIG,ILHA_GRANDE,29.7,-3.0666,-39.7026,2014-08-20,2014-08-20,NE,NE
78,CEUEBC,BOCA_DO_CÓRREGO,24.3,-3.0984,-39.6663,2014-08-30,2014-08-30,NE,NE
79,CEUERB,RIBEIRÃO,21.6,-3.0983,-39.6785,2014-09-25,2014-09-25,NE,NE
80,BAUEJO,JOANA,28.2,-13.9185,-42.6205,2014-09-26,2014-09-26,NE,NE
81,BAUET1,CAETITÉ_1,30.0,-14.1632,-42.4845,2014-10-03,2014-10-03,NE,NE
82,BAUET2,CAETITÉ_2,30.0,-14.185,-42.503,2014-10-08,2014-10-08,NE,NE
83,BAUET3,CAETITÉ_3,30.0,-14.2194,-42.507,2014-10-08,2014-10-08,NE,NE
84,BAUEMI,EMILIANA,28.2,-13.91,-42.6241,2014-10-09,2014-10-09,NE,NE
85,BAUEAR,DOS_ARAÇÁS,31.86,-14.1296,-42.5597,2014-10-11,2014-10-11,NE,NE
86,BAUEDP,DA_PRATA,21.84,-13.9499,-42.6382,2014-10-11,2014-10-11,NE,NE
87,BAUEMR,MORRÃO,30.24,-14.0885,-42.6827,2014-10-11,2014-10-11,NE,NE
88,BAUESE,SERAÍMA,30.24,-14.1473,-42.7119,2014-10-11,2014-10-11,NE,NE
89,BAUETQ,TANQUE,30.0,-14.1025,-42.6107,2014-10-11,2014-10-11,NE,NE
90,BAUEVN,VENTOS_DO_NORDESTE,23.52,-14.1197,-42.6142,2014-10-11,2014-10-11,NE,NE
91,RNUEMD,MODELO_II,25.85,-5.4144,-35.9001,2014-10-23,2014-10-23,NE,NE
92,RNUEMP,MODELO_I,30.55,-5.4308,-35.8931,2014-10-25,2014-10-25,NE,NE
93,CEUEFC,FAÍSA_V,29.4,-3.3699,-39.2621,2014-10-30,2014-10-30,NE,NE
94,CEUECO,COQUEIROS,27.0,-2.8855,-39.9721,2014-11-07,2014-11-07,NE,NE
95,CEUEAP,SANTO_ANTÔNIO_DE_PÁD,14.0,-3.2733,-39.2246,2014-11-11,2014-11-11,NE,NE
96,CEUESC,SÃO_CRISTÓVÃO,26.0,-3.2579,-39.2475,2014-11-11,2014-11-11,NE,NE
97,CEUESJ,SÃO_JORGE,24.0,-3.247,-39.2502,2014-11-11,2014-11-11,NE,NE
98,RNCEE1,EURUS_I,30.0,-5.3655,-35.8621,2014-12-03,2014-12-03,NE,NE
99,RNCEE3,EURUS_III,30.0,-5.3971,-35.8748,2014-12-03,2014-12-03,NE,NE
100,RNECBR,COSTA_BRANCA,20.7,-5.4215,-35.8526,2014-12-03,2014-12-03,NE,NE
101,RNEPEP,PEDRA_PRETA,20.7,-5.4268,-35.8534,2014-12-03,2014-12-03,NE,NE
102,RNECV2,CAMPO_DOS_VENTOS_II,30.0,-5.3201,-35.9322,2014-12-04,2014-12-05,NE,NE
103,RNEJUR,JUREMAS,16.1,-5.3898,-35.8463,2014-12-05,2014-12-05,NE,NE
104,RNEAB4,ASA_BRANCA_IV,32.0,-5.3291,-35.9916,2014-12-06,2014-12-06,NE,NE
105,RNEAB5,ASA_BRANCA_V,32.0,-5.3828,-36.0088,2014-12-06,2014-12-06,NE,NE
106,RNEAB6,ASA_BRANCA_VI,32.0,-5.3596,-35.9987,2014-12-06,2014-12-06,NE,NE
107,RNEAB7,ASA_BRANCA_VII,32.0,-5.2529,-35.943,2014-12-06,2014-12-06,NE,NE
108,RNEAB8,ASA_BRANCA_VIII,32.0,-5.2812,-35.9804,2014-12-06,2014-12-06,NE,NE
109,RNECAD,CARCARÁ_II,30.0,-4.9457,-37.0036,2014-12-09,2014-12-09,NE,NE
110,RNEMAC,MACACOS,20.7,-5.412,-35.8483,2014-12-11,2014-12-11,NE,NE
111,RNEPR1,RENASCENÇA_I,30.0,-5.3043,-35.8692,2014-12-24,2014-12-24,NE,NE
112,RNEPR2,RENASCENÇA_II,30.0,-5.307,-35.8887,2014-12-24,2014-12-24,NE,NE
113,RNEPR3,RENASCENÇA_III,30.0,-5.2953,-35.8957,2014-12-24,2014-12-24,NE,NE
114,RNEPR4,RENASCENÇA_IV,30.0,-5.2981,-35.9164,2014-12-24,2014-12-24,NE,NE
115,RNEVSM,VENTOS_DE_SÃO_MIGUEL,30.0,-5.2839,-35.8755,2014-12-24,2014-12-24,NE,NE
116,RNUEER,EURUS_II,30.0,-5.3919,-35.8331,2015-01-01,2015-01-01,NE,NE
117,RNUERN,RENASCENÇA_V,30.0,-5.2698,-35.8589,2015-01-01,2015-01-01,NE,NE
118,PEUEPF,PAU_FERRO,30.55,-9.0625,-38.1186,2015-02-04,2015-02-04,NE,NE
119,PEUEPG,PEDRA_DO_GERÔNIMO,30.55,-9.0672,-38.1448,2015-02-04,2015-02-04,NE,NE
120,PEUETA,TACAICÓ,18.8,-9.0187,-38.056,2015-02-04,2015-02-04,NE,NE
121,RNUEOD,DREEN_OLHO_D'ÁGUA,30.0,-5.0545,-35.9687,2015-02-25,2015-02-25,NE,NE
122,RNUESB,DREEN_SÃO_BENTO_DO_N,30.0,-5.053,-35.9784,2015-02-25,2015-02-25,NE,NE
123,RNUEBV,DREEN_BOA_VISTA,14.0,-5.1106,-35.9279,2015-02-25,2015-02-25,NE,NE
124,RNUEFA,FAROL,20.0,-5.097,-36.0204,2015-02-25,2015-02-25,NE,NE
125,BAUEAT,AMETISTA,28.56,-14.1324,-42.5924,2015-03-04,2015-03-04,NE,NE
126,BAUEDU,DOURADOS,28.56,-13.8633,-42.7281,2015-03-04,2015-03-04,NE,NE
127,BAUEMA,MARON,30.24,-14.0857,-42.6203,2015-03-04,2015-03-04,NE,NE
128,BAUEPI,PILÕES,30.24,-14.0292,-42.6161,2015-03-04,2015-03-04,NE,NE
129,RNECAU,CARCARÁ_I,30.0,-4.9438,-36.9918,2015-03-24,2015-03-24,NE,NE
130,RNETER,TERRAL,30.0,-4.9618,-37.0355,2015-03-24,2015-03-24,NE,NE
131,RNCEM2,MORRO_DOS_VENTOS_II,29.16,-5.3601,-35.8355,2015-04-16,2015-04-16,NE,NE
132,RNESMA,SM_(SANTA_MARIA),29.7,-5.4421,-35.9233,2015-04-23,2015-04-23,NE,NE
133,RNESHE,SANTA_HELENA,29.7,-5.4721,-35.9162,2015-05-06,2015-05-06,NE,NE
134,RNESUR,VENTOS_DE_SANTO_URIE,16.2,-5.4873,-35.9001,2015-05-22,2015-05-22,NE,NE
135,RNUER4,RIACHÃO_IV,29.7,-5.5211,-35.469,2015-06-01,2015-06-01,NE,NE
136,RNUER1,RIACHÃO_VI,29.7,-5.5376,-35.4467,2015-06-01,2015-06-01,NE,NE
137,RNUER2,RIACHÃO_II,27.0,-5.5694,-35.4473,2015-06-01,2015-06-01,NE,NE
138,RNUER7,RIACHÃO_VII,29.7,-5.5778,-35.464,2015-06-01,2015-06-01,NE,NE
139,RNUER3,RIACHÃO_I,29.7,-5.523,-35.4285,2015-06-27,2015-06-29,NE,NE
140,PIEJ10,VENTOS_DE_SANTA_JOAN,29.6,-7.4387,-40.7083,2015-07-09,2015-07-09,NE,NE
141,PIEJ11,VENTOS_DE_SANTA_JOAN,29.6,-7.483,-40.7998,2015-07-09,2015-07-09,NE,NE
142,PIEJ12,VENTOS_DE_SANTA_JOAN,28.9,-7.486,-40.754,2015-07-09,2015-07-09,NE,NE
143,PIEJ13,VENTOS_DE_SANTA_JOAN,29.6,-7.4104,-40.7109,2015-07-09,2015-07-09,NE,NE
144,PIEJ14,VENTOS_DE_SANTA_JOAN,28.9,-7.4778,-40.7674,2015-07-09,2015-07-09,NE,NE
145,PIEJ16,VENTOS_DE_SANTA_JOAN,28.9,-7.4588,-40.7237,2015-07-09,2015-07-09,NE,NE
146,RNEAB1,ASA_BRANCA_I,27.0,-5.2323,-35.8266,2015-08-05,2015-08-05,NE,NE
147,RNEEU4,EURUS_IV,27.0,-5.2622,-35.8145,2015-08-20,2015-08-20,NE,NE
148,PIEJ9,VENTOS_DE_SANTA_JOAN,29.6,-7.4517,-40.7441,2015-08-27,2015-08-27,NE,NE
149,RNEAB3,ASA_BRANCA_III,27.0,-5.255,-35.8436,2015-09-04,2015-09-04,NE,NE
150,BAECTA,CAETITÉ_A,23.8,-14.1416,-42.4782,2015-09-09,2015-09-09,NE,NE
151,BAECTB,CAETITÉ_B,22.1,-14.1147,-42.4748,2015-09-09,2015-09-09,NE,NE
152,BAECTC,CAETITÉ_C,8.5,-14.1082,-42.4746,2015-09-09,2015-09-09,NE,NE
153,RNEAB2,ASA_BRANCA_II,27.0,-5.2286,-35.8808,2015-09-15,2015-09-15,NE,NE
154,BAEMUS,MUSSAMBÊ,32.9,-9.8628,-41.0834,2015-10-14,2015-12-23,NE,NE
155,BAEMBU,MORRO_BRANCO_I,32.9,-9.8497,-41.0565,2015-11-04,2015-11-04,NE,NE
156,BAUEDR,DOIS_RIACHOS,30.0,-11.8225,-41.4588,2015-11-14,2015-11-14,NE,NE
157,BAUEVA,VENTOS_DA_ANDORINHA,30.0,-10.5833,-40.6375,2015-11-14,2015-11-14,NE,NE
158,BAUEVM,VENTOS_DE_MORRINHOS,30.0,-10.5695,-40.6292,2015-11-14,2015-11-14,NE,NE
159,BAEBAU,BARAÚNAS_I,32.9,-9.8868,-41.1203,2015-11-20,2015-11-20,NE,NE
160,RNECA1,CAIÇARA_I,27.0,-4.9977,-36.9147,2015-12-05,2015-12-05,NE,NE
161,RNEJU1,JUNCO_I,24.0,-5.0265,-36.9165,2015-12-05,2015-12-05,NE,NE
162,RNEJU2,JUNCO_II,24.0,-5.0132,-36.916,2015-12-05,2015-12-05,NE,NE
163,BAEVC2,VENTOS_DE_CAMPO_FORM,30.0,-10.5198,-40.6117,2015-12-08,2015-12-08,NE,NE
164,RNECA2,CAIÇARA_II,18.0,-4.9877,-36.9287,2015-12-09,2015-12-09,NE,NE
165,PEESV1,SERRA_DAS_VACAS_I,23.92,-8.9113,-36.7477,2015-12-18,2015-12-18,NE,NE
166,PEESV2,SERRA_DAS_VACAS_II,22.295,-8.8954,-36.7259,2015-12-18,2015-12-18,NE,NE
167,PEESV3,SERRA_DAS_VACAS_III,22.235,-8.9031,-36.7579,2015-12-18,2015-12-18,NE,NE
168,PEESV4,SERRA_DAS_VACAS_IV,22.295,-8.9137,-36.7298,2015-12-18,2015-12-18,NE,NE
169,PIEJ02,VENTOS_DE_SANTA_JOAN,30.0,-7.5697,-40.7032,2015-12-18,2015-12-18,NE,NE
170,PIEJ06,VENTOS_DE_SANTA_JOAN,30.0,-7.5266,-40.7442,2015-12-18,2015-12-18,NE,NE
171,PIEJ08,VENTOS_DE_SANTA_JOAN,30.0,-7.5977,-40.7325,2015-12-18,2015-12-18,NE,NE
172,PIEJ15,VENTOS_DE_SANTA_JOAN,30.0,-7.5109,-40.7344,2015-12-18,2015-12-18,NE,NE
173,PIEO01,VENTOS_DE_SANTO_ONOF,30.0,-7.5533,-40.7255,2015-12-18,2015-12-18,NE,NE
174,PIEO02,VENTOS_DE_SANTO_ONOF,30.0,-7.5946,-40.7304,2015-12-18,2015-12-18,NE,NE
175,PIEO03,VENTOS_DE_SANTO_ONOF,30.0,-7.555,-40.7257,2015-12-18,2015-12-18,NE,NE
176,PEEBR1,VENTOS_DE_SANTA_BRÍG,13.6,-8.8099,-36.7487,2015-12-25,2015-12-25,NE,NE
177,PEEBR2,VENTOS_DE_SANTA_BRÍG,27.2,-8.7969,-36.7338,2015-12-25,2015-12-25,NE,NE
178,PEEBR3,VENTOS_DE_SANTA_BRÍG,28.9,-8.8451,-36.7697,2015-12-25,2015-12-25,NE,NE
179,PEEBR4,VENTOS_DE_SANTA_BRÍG,27.2,-8.8338,-36.7602,2015-12-25,2015-12-25,NE,NE
180,PEEBR5,VENTOS_DE_SANTA_BRÍG,28.9,-8.8465,-36.7302,2015-12-25,2015-12-25,NE,NE
181,PEEBR6,VENTOS_DE_SANTA_BRÍG,28.9,-8.8681,-36.7471,2015-12-25,2015-12-25,NE,NE
182,PEEBR7,VENTOS_DE_SANTA_BRÍG,27.2,-8.8025,-36.7579,2015-12-25,2015-12-25,NE,NE
183,BAEPGO,ESPIGÃO,10.08,-14.477,-42.5853,2016-01-01,2016-01-01,NE,NE
184,BAUEBR,BORGO,20.16,-14.5084,-42.5867,2016-01-01,2016-01-01,NE,NE
185,BAUECE,CAETITE,30.24,-14.4689,-42.5836,2016-01-01,2016-01-01,NE,NE
186,BAUEPO,PELOURINHO,21.84,-14.5292,-42.5867,2016-01-01,2016-01-01,NE,NE
187,BAUESP,SERRA_DO_ESPINHAÇO,18.48,-14.4957,-42.5829,2016-01-01,2016-01-01,NE,NE
188,BAUEVS,VENTOS_DO_SERTÃO,30.0,-10.5583,-40.5692,2016-01-01,2016-01-01,NE,NE
189,CEEIT5,ITAREMA_V,21.0,-2.9665,-39.8795,2016-01-01,2016-01-01,NE,NE
190,PIEAU3,VENTOS_DE_SANTO_AUGU,29.6,-7.3723,-40.7072,2016-01-16,2016-01-16,NE,NE
191,PIEJ01,VENTOS_DE_SANTA_JOAN,28.9,-7.4237,-40.6715,2016-01-16,2016-01-16,NE,NE
192,PIEJ04,VENTOS_DE_SANTA_JOAN,27.2,-7.4513,-40.6864,2016-01-16,2016-01-16,NE,NE
193,PIEAU5,VENTOS_DE_SANTO_AUGU,29.6,-7.4093,-40.6951,2016-01-22,2016-01-22,NE,NE
194,PIEJ05,VENTOS_DE_SANTA_JOAN,28.9,-7.3709,-40.6742,2016-01-22,2016-01-22,NE,NE
195,BAEVC1,VENTOS_DE_CAMPO_FORM,30.0,-10.6286,-40.6858,2016-01-23,2016-01-23,NE,NE
196,RNUEG2,CALANGO_2,30.0,-6.0166,-36.4835,2016-01-30,2016-01-30,NE,NE
197,RNUEG1,CALANGO_1,30.0,-6.0339,-36.544,2016-01-30,2016-01-30,NE,NE
198,RNUEG3,CALANGO_3,30.0,-6.0489,-36.546,2016-01-30,2016-01-30,NE,NE
199,RNUEG4,CALANGO_4,30.0,-6.0236,-36.472,2016-01-30,2016-01-30,NE,NE
200,RNUEG5,CALANGO_5,30.0,-6.0303,-36.488,2016-01-30,2016-01-30,NE,NE
201,PIEJ07,VENTOS_DE_SANTA_JOAN,28.9,-7.413,-40.6686,2016-01-30,2016-01-30,NE,NE
202,BAEANG,ANGICAL,12.95,-14.3461,-42.6137,2016-02-05,2016-02-05,NE,NE
203,BAECOR,CORRUPIÃO,27.75,-14.2927,-42.5853,2016-02-05,2016-02-05,NE,NE
204,BAEINH,INHAMBU,31.45,-14.3912,-42.5939,2016-02-05,2016-02-05,NE,NE
205,BAETEI,TEIU,16.65,-14.3381,-42.5911,2016-02-05,2016-02-05,NE,NE
206,PIEAU4,VENTOS_DE_SANTO_AUGU,28.9,-7.3858,-40.6978,2016-02-06,2016-02-06,NE,NE
207,BAECAI,CAITITU,22.2,-14.4528,-42.641,2016-02-16,2016-02-16,NE,NE
208,BAETAM,TAMANDUÁ_MIRIM,29.6,-14.3776,-42.6094,2016-02-16,2016-02-16,NE,NE
209,BAECOQ,COQUEIRINHO,29.6,-14.4199,-42.6287,2016-02-17,2016-02-17,NE,NE
210,RNELAN,LANCHINHA,28.0,-6.1353,-36.722,2016-02-19,2016-02-20,NE,NE
211,RNEPEL,PELADO,20.0,-6.0043,-36.4353,2016-02-20,2016-02-20,NE,NE
212,CEEIT2,ITAREMA_II,27.0,-2.9211,-39.8618,2016-02-23,2016-02-23,NE,NE
213,RNESS1,SERRA_DE_SANTANA_I,20.0,-6.0565,-36.5804,2016-03-02,2016-03-02,NE,NE
214,RNESS2,SERRA_DE_SANTANA_II,30.0,-6.1014,-36.5786,2016-03-02,2016-03-02,NE,NE
215,RNESS3,SERRA_DE_SANTANA_III,30.0,-6.0248,-36.5119,2016-03-02,2016-03-02,NE,NE
216,BAEBAD,BARAÚNAS_II,25.85,-9.8717,-41.0631,2016-03-11,2016-03-17,NE,NE
217,BAEBCO,BANDA_DE_COURO,32.9,-9.8478,-41.0538,2016-03-11,2016-03-17,NE,NE
218,PIEJ03,VENTOS_DE_SANTA_JOAN,29.6,-7.4377,-40.7465,2016-03-11,2016-03-11,NE,NE
219,CEEIT1,ITAREMA_I,27.0,-2.9225,-39.8407,2016-04-01,2016-04-01,NE,NE
220,BAEA02,ASSURUÁ_II,30.0,-11.1638,-42.6707,2016-04-05,2016-04-05,NE,NE
221,BAEA07,ASSURUÁ_VII,18.0,-11.0711,-42.6788,2016-04-05,2016-04-05,NE,NE
222,CEEIT3,ITAREMA_III,15.0,-2.9476,-39.8369,2016-04-06,2016-04-06,NE,NE
223,BAEA05,ASSURUÁ_V,20.0,-11.1841,-42.7053,2016-04-07,2016-04-07,NE,NE
224,BAUEVG,VENTOS_DE_GUARÁS_I,30.0,-10.6061,-40.6545,2016-04-26,2016-04-26,NE,NE
225,BAUEDA,DAMASCENA,30.0,-11.8567,-41.4742,2016-04-30,2016-04-30,NE,NE
226,RNECV3,CAMPO_DOS_VENTOS_III,25.2,-5.3356,-35.9669,2016-05-05,2016-05-05,NE,NE
227,RNEBF1,BAIXA_DO_FEIJÃO_I,30.0,-5.322,-36.0606,2016-05-21,2016-05-21,NE,NE
228,RNEBF2,BAIXA_DO_FEIJÃO_II,30.0,-5.3698,-36.0317,2016-05-21,2016-05-21,NE,NE
229,RNEBF3,BAIXA_DO_FEIJÃO_III,30.0,-5.3022,-36.0381,2016-05-21,2016-05-21,NE,NE
230,RNEBF4,BAIXA_DO_FEIJÃO_IV,30.0,-5.3449,-36.04,2016-05-21,2016-05-21,NE,NE
231,PEECL1,VENTOS_DE_SAO_CLEMEN,31.365,-8.7263,-36.6999,2016-05-25,2016-05-25,NE,NE
232,PEECL2,VENTOS_DE_SAO_CLEMEN,31.365,-8.7093,-36.7337,2016-05-25,2016-05-25,NE,NE
233,PEECL3,VENTOS_DE_SAO_CLEMEN,31.365,-8.754,-36.7181,2016-05-25,2016-05-25,NE,NE
234,PEECL4,VENTOS_DE_SAO_CLEMEN,31.365,-8.7627,-36.7509,2016-05-25,2016-05-25,NE,NE
235,PEECL6,VENTOS_DE_SAO_CLEMEN,27.675,-8.7819,-36.7576,2016-05-25,2016-05-25,NE,NE
236,PEECL7,VENTOS_DE_SAO_CLEMEN,25.83,-8.7513,-36.7514,2016-05-25,2016-05-25,NE,NE
237,RNECV5,CAMPO_DOS_VENTOS_V,25.2,-5.3242,-35.9436,2016-06-04,2016-06-04,NE,NE
238,PEECL5,VENTOS_DE_SAO_CLEMEN,31.365,-8.7076,-36.7668,2016-06-14,2016-06-14,NE,NE
239,PEECL8,VENTOS_DE_SAO_CLEMEN,22.14,-8.7045,-36.7757,2016-06-21,2016-06-21,NE,NE
240,PIEES1,VENTOS_DE_SANTO_ESTE,25.3,-7.7442,-40.6208,2016-06-23,2017-06-23,NE,NE
241,RNECV1,CAMPO_DOS_VENTOS_I,25.2,-5.3536,-35.9344,2016-06-23,2016-06-23,NE,NE
242,PIESAN,VENTOS_DE_SANTA_ANGE,29.7,-7.3047,-40.53,2016-07-05,2016-07-05,NE,NE
243,RNEMC1,MACAMBIRA_I,18.0,-6.0463,-36.5551,2016-07-14,2016-07-14,NE,NE
244,RNEMC2,MACAMBIRA_II,18.0,-6.0754,-36.5302,2016-07-23,2016-07-23,NE,NE
245,CEEIT4,ITAREMA_IV,21.0,-2.9291,-39.8758,2016-07-27,2016-07-27,NE,NE
246,CEEIT6,ITAREMA_VI,24.0,-2.9291,-39.8758,2016-07-27,2016-07-27,NE,NE
247,CEEIT7,ITAREMA_VII,21.0,-2.953,-39.8785,2016-07-27,2016-07-27,NE,NE
248,CEEIT8,ITAREMA_VIII,21.0,-2.9799,-39.8935,2016-07-27,2016-07-27,NE,NE
249,CEEIT9,ITAREMA_IX,30.0,-2.9291,-39.8758,2016-07-29,2016-07-29,NE,NE
250,RNEBEN,VENTOS_DE_SÃO_BENEDI,29.4,-5.2263,-35.7852,2016-08-13,2016-08-13,NE,NE
251,RNEDOM,SÃO_DOMINGOS,25.2,-5.2071,-35.8232,2016-08-27,2016-08-27,NE,NE
252,RNEVA5,VILA_AMAZONAS_V,24.0,-4.9881,-36.9646,2016-08-27,2016-08-27,NE,NE
253,RNEVP1,VILA_PARÁ_I,27.0,-5.0148,-36.9645,2016-09-10,2016-09-10,NE,NE
254,RNEVP2,VILA_PARÁ_II,24.0,-5.0357,-36.9644,2016-09-15,2016-09-15,NE,NE
255,CEEVPA,VENTOS_DO_PARAZINHO,29.12,-3.8888,-41.1857,2016-09-28,2016-09-28,NE,NE
256,CEEVIT,VENTOS_DE_TIANGUÁ,27.75,-3.8796,-41.1534,2016-09-28,2016-09-28,NE,NE
257,CEEVTN,VENTOS_DE_TIANGUÁ_NO,29.12,-3.8944,-41.1969,2016-09-28,2016-09-28,NE,NE
258,CEEVMC,VENTOS_DO_MORRO_DO_C,27.51,-3.878,-41.1751,2016-10-06,2016-10-06,NE,NE
259,CEEVFO,VENTO_FORMOSO,27.51,-3.8529,-41.1834,2016-10-07,2016-10-07,NE,NE
260,RNEVP3,VILA_PARÁ_III,24.0,-5.0656,-36.9643,2016-10-07,2016-10-07,NE,NE
261,CEESMA,SANTA_MÔNICA_I,18.9,-3.2594,-39.2817,2016-10-11,2016-10-11,NE,NE
262,RNEDIM,VENTOS_DE_SANTO_DIMA,29.4,-5.2338,-35.7903,2016-10-11,2016-10-11,NE,NE
263,CEEMAU,MALHADINHA_I,23.1,-3.9466,-41.123,2016-10-20,2016-10-20,NE,NE
264,RNEMTO,VENTOS_DE_SÃO_MARTIN,14.7,-5.2779,-35.7809,2016-11-04,2016-11-04,NE,NE
265,RNEURS,SANTA_ÚRSULA,27.3,-5.2937,-35.7893,2016-11-15,2016-11-15,NE,NE
266,RNECP3,CABEÇO_PRETO_III,26.0,-5.4183,-35.9862,2016-11-17,2016-11-17,NE,NE
267,RNECP5,CABEÇO_PRETO_V,26.0,-5.4799,-36.0044,2016-11-17,2016-11-17,NE,NE
268,RNECP6,CABEÇO_PRETO_VI,18.0,-5.4643,-35.9355,2016-11-19,2016-11-19,NE,NE
269,RNEMON,SANTA_MÔNICA,29.4,-5.2798,-35.8006,2016-12-09,2016-12-09,NE,NE
270,PIEES3,VENTOS_DE_SANTO_ESTE,29.9,-7.7283,-40.6584,2016-12-09,2016-12-09,NE,NE
271,PIEES5,VENTOS_DE_SANTO_ESTE,27.6,-7.7599,-40.6733,2016-12-13,2016-12-13,NE,NE
272,CEECAA,CACIMBAS_1,18.9,-3.2533,-39.2811,2016-12-20,2016-12-20,NE,NE
273,PIEAU8,VENTOS_DE_SANTO_AUGU,18.4,-7.7707,-40.6777,2016-12-24,2016-12-24,NE,NE
274,RNESA1,SANTANA_I,30.0,-6.0535,-36.4556,2016-12-28,2016-12-28,NE,NE
275,RNESA2,SANTANA_II,24.0,-6.0428,-36.464,2016-12-28,2016-12-28,NE,NE
276,RNUEG6,CALANGO_6,30.0,-6.0005,-36.4498,2016-12-28,2016-12-28,NE,NE
277,PIEAU2,VENTOS_DE_SANTO_AUGU,27.6,-7.7721,-40.6784,2016-12-29,2016-12-29,NE,NE
278,PIEVI2,VENTOS_DE_SÃO_VIRGÍL,29.9,-7.7917,-40.728,2017-02-10,2017-02-10,NE,NE
279,PIEAU1,VENTOS_DE_SANTO_AUGU,18.4,-7.743,-40.6752,2017-02-18,2017-02-18,NE,NE
280,PIEAU7,VENTOS_DE_SANTO_AUGU,18.4,-7.7253,-40.6793,2017-03-04,2017-03-04,NE,NE
281,CEEEST,ESTRELA,29.7,-3.2478,-39.2942,2017-03-18,2017-03-18,NE,NE
282,PIEAU6,VENTOS_DE_SANTO_AUGU,29.9,-7.714,-40.6761,2017-03-24,2017-03-24,NE,NE
283,CEEOVE,OURO_VERDE,29.7,-3.2792,-39.3059,2017-04-06,2017-04-06,NE,NE
284,PIEES2,VENTOS_DE_SANTO_ESTE,25.3,-7.7482,-40.6296,2017-05-06,2017-06-07,NE,NE
285,PIESBA,VENTOS_DE_SANTA_BARB,29.7,-7.3034,-40.5363,2017-05-26,2017-05-26,NE,NE
286,PIEO04,VENTOS_DE_SANTO_ONOF,27.6,-7.7409,-40.7243,2017-06-14,2017-06-14,NE,NE
287,RNESCR,SANTO_CRISTO,27.0,-5.1355,-35.6207,2017-06-17,2017-06-17,NE,NE
288,RNERED,REDUTO,27.0,-5.1282,-35.6887,2017-06-17,2017-06-17,NE,NE
289,RNECNB,CARNAÚBAS,27.0,-5.152,-35.6629,2017-06-17,2017-06-17,NE,NE
290,RNESJO,SÃO_JOÃO,27.0,-5.1287,-35.6538,2017-06-20,2017-06-20,NE,NE
291,RNEVAI,VILA_ACRE_I,27.3,-5.0636,-37.0291,2017-06-23,2017-06-23,NE,NE
292,PIESED,VENTOS_DE_SANTA_EDWI,29.7,-7.3069,-40.555,2017-06-24,2017-06-24,NE,NE
293,CEECH1,PEDRA_CHEIROSA,25.2,-2.9976,-39.7337,2017-06-27,2017-06-27,NE,NE
294,CEECH2,PEDRA_CHEIROSA_II,23.1,-2.9995,-39.7316,2017-06-27,2017-06-27,NE,NE
295,MAEDT7,DELTA_3_VII,27.6,-2.6184,-42.658,2017-07-07,2017-07-07,NE,N
296,MAEDT6,DELTA_3_VI,27.6,-2.6298,-42.648,2017-07-13,2017-07-13,NE,N
297,PIESAD,VENTOS_DE_SANTO_ADRI,29.7,-7.3292,-40.5812,2017-07-18,2017-08-18,NE,NE
298,PIESRE,VENTOS_DE_SANTA_REGI,29.7,-7.3301,-40.59,2017-07-19,2017-07-19,NE,NE
299,PIESAL,VENTOS_DE_SANTO_ALBA,29.7,-7.3546,-40.6026,2017-07-19,2017-07-19,NE,NE
300,MAEDT2,DELTA_3_II,27.6,-2.6278,-42.6643,2017-07-20,2017-07-20,NE,N
301,MAEDT5,DELTA_3_V,27.6,-2.64,-42.6373,2017-07-20,2017-07-20,NE,N
302,MAEDT4,DELTA_3_IV,27.6,-2.6577,-42.6141,2017-07-26,2017-07-26,NE,N
303,PIESFA,VENTOS_DE_SANTA_FÁTI,29.7,-7.2986,-40.5557,2017-07-28,2017-07-28,NE,NE
304,PIEV14,VENTOS_DE_SÃO_VICENT,29.4,-7.9895,-40.5834,2017-08-02,2017-08-02,NE,NE
305,PIEV12,VENTOS_DE_SÃO_VICENT,29.4,-8.0214,-40.6178,2017-08-29,2017-08-29,NE,NE
306,PIEVI1,VENTOS_DE_SÃO_VIRGÍL,29.9,-7.6882,-40.6883,2017-08-30,2017-08-30,NE,NE
307,MAEDT1,DELTA_3_I,27.6,-2.6716,-42.6205,2017-09-01,2017-09-01,NE,N
308,MAEDT3,DELTA_3_III,27.6,-2.6609,-42.6328,2017-09-01,2017-09-01,NE,N
309,BAECR1,CRISTALANDIA_I,30.0,-13.9312,-41.5609,2017-09-01,2017-09-01,NE,NE
310,BAECR2,CRISTALANDIA_II,30.0,-13.9701,-41.5502,2017-09-01,2017-09-01,NE,NE
311,BAECR3,CRISTALANDIA__III,30.0,-14.0095,-41.5333,2017-09-01,2017-09-01,NE,NE
312,PIEV13,VENTOS_DE_SÃO_VICENT,29.4,-8.0031,-40.6115,2017-09-19,2017-09-19,NE,NE
313,PIEVI3,VENTOS_DE_SÃO_VIRGÍL,19.8,-7.7835,-40.6575,2017-09-29,2017-09-29,NE,NE
314,PIEES4,VENTOS_DE_SANTO_ESTE,29.9,-7.7266,-40.5941,2017-10-03,2017-10-03,NE,NE
315,PIEV08,VENTOS_DE_SÃO_VICENT,29.4,-8.0121,-40.6317,2017-10-06,2017-10-06,NE,NE
316,BAEDF1,DELFINA_I,28.0,-10.0575,-40.9787,2017-10-31,2017-10-31,NE,NE
317,BAEDF4,DELFINA_IV,8.0,-10.0657,-40.9809,2017-10-31,2017-10-31,NE,NE
318,BAEDF5,DELFINA_V,28.0,-10.0229,-40.9284,2017-10-31,2017-10-31,NE,NE
319,BAEDF6,DELFINA_VI,30.0,-10.0286,-40.9526,2017-10-31,2017-10-31,NE,NE
320,BAEDF7,DELFINA_VII,30.0,-9.986,-40.9111,2017-10-31,2017-10-31,NE,NE
321,BAEDF3,DELFINA_III,28.0,-10.0044,-40.9342,2017-11-02,2017-11-02,NE,NE
322,BAEDF2,DELFINA_II,28.0,-10.0369,-40.9586,2017-11-02,2017-11-02,NE,NE
323,MAEDT8,DELTA_3_VIII,27.6,-2.6672,-42.6427,2017-11-07,2017-11-07,NE,N
324,PIEV11,VENTOS_DE_SÃO_VICENT,29.4,-7.9957,-40.6349,2017-11-09,2017-11-10,NE,NE
325,BAUECR,CRISTAL,29.9,-11.7965,-41.3934,2017-11-10,2017-11-13,NE,NE
326,BAUEPR,PRIMAVERA,29.9,-11.7334,-41.373,2017-11-10,2017-11-13,NE,NE
327,PIEV10,VENTOS_DE_SÃO_VICENT,29.4,-8.0065,-40.6378,2017-11-17,2017-11-17,NE,NE
328,PEESV5,SERRA_DAS_VACAS_V,25.3,-8.9154,-36.7757,2017-12-01,2017-12-01,NE,NE
329,PEESV6,SERRA_DAS_VACAS_VII,25.3,-8.9209,-36.7822,2017-12-01,2017-12-01,NE,NE
330,BAUESJ,SÃO_JUDAS,29.9,-11.6643,-41.362,2017-12-01,2017-12-01,NE,NE
331,CEEGRR,GARROTE,23.1,-4.735,-37.3247,2017-12-01,2017-12-01,NE,NE
332,CEESRM,SÃO_RAIMUNDO,23.1,-4.7789,-37.2932,2017-12-01,2017-12-01,NE,NE
333,CEESI3,SANTO_INÁCIO_III,29.4,-4.7654,-37.292,2017-12-05,2017-12-05,NE,NE
334,CEESI4,SANTO_INÁCIO_IV,23.1,-4.7458,-37.309,2017-12-05,2017-12-05,NE,NE
335,BAUEMN,MANIÇOBA,30.0,-11.8934,-41.4583,2017-12-06,2017-12-06,NE,NE
336,PIEV09,VENTOS_DE_SÃO_VICENT,29.4,-8.0173,-40.6585,2017-12-06,2017-12-06,NE,NE
337,RNEPRA,PEDRA_RAJADA,20.0,-5.9142,-36.3092,2017-12-07,2017-12-07,NE,NE
338,RNEPRD,PEDRA_RAJADA_II,20.0,-5.8876,-36.2893,2017-12-07,2017-12-07,NE,NE
339,BAECND,CASA_NOVA_II,32.9,-9.2706,-41.0501,2017-12-09,2017-12-09,NE,NE
340,BAUEEP,ESPERANÇA,28.0,-11.8616,-41.4161,2017-12-21,2017-12-21,NE,NE
341,RNEJER,JERICO,32.9,-5.3689,-36.0927,2017-12-28,2017-12-28,NE,NE
342,RNEARO,AROEIRA,32.9,-5.3387,-36.1129,2017-12-28,2017-12-28,NE,NE
343,BAEA04,ASSURUÁ_IV,30.0,-11.0475,-42.6876,2018-01-04,2018-01-04,NE,NE
344,RNUE14,UNIÃO_DOS_VENTOS_14,21.0,-5.1053,-35.872,2018-01-26,2018-02-27,NE,NE
345,RNUE13,UNIÃO_DOS_VENTOS_13,18.9,-5.0837,-35.8623,2018-01-27,2018-02-27,NE,NE
346,RNUE12,UNIÃO_DOS_VENTOS_12,25.2,-5.1044,-35.8533,2018-02-10,2018-02-27,NE,NE
347,BAECNT,CASA_NOVA_III,28.2,-9.3148,-41.1175,2018-02-28,2018-02-28,NE,NE
348,RNEAV1,AVENTURA_I,28.2,-5.3801,-35.8068,2018-03-20,2018-03-28,NE,NE
349,RNEUBZ,UMBUZEIROS,32.9,-5.4115,-36.0834,2018-03-30,2018-03-30,NE,NE
350,BAECA3,CAPOEIRAS_III,27.5,-11.1761,-42.7386,2018-04-12,2018-04-13,NE,NE
351,BAECP1,CURRAL_DE_PEDRAS_I,20.0,-11.1339,-42.6543,2018-04-12,2018-04-12,NE,NE
352,BAECP2,CURRAL_DE_PEDRAS_II,27.5,-11.2118,-42.7012,2018-04-13,2018-04-13,NE,NE
353,BAEDI2,DIAMANTE_II,17.5,-11.1056,-42.6731,2018-04-13,2018-04-13,NE,NE
354,BAEDI3,DIAMANTE_III,17.5,-11.0904,-42.683,2018-04-13,2018-04-13,NE,NE
355,BAELA1,LARANJEIRAS_I,27.5,-11.1228,-42.6841,2018-04-13,2018-04-13,NE,NE
356,BAELA2,LARANJEIRAS_II,30.0,-11.1311,-42.6968,2018-04-13,2018-04-13,NE,NE
357,BAELA5,LARANJEIRAS_V,25.0,-11.1145,-42.6711,2018-04-13,2018-04-13,NE,NE
358,BAEA03,ASSURUÁ_III,12.5,-11.1677,-42.6849,2018-04-21,2018-07-03,NE,NE
359,CEEBC3,BONS_VENTOS_CACIMBAS,14.7,-3.8672,-41.0202,2018-05-10,2018-07-03,NE,NE
360,CEEBC4,BONS_VENTOS_CACIMBAS,10.5,-3.9321,-41.0267,2018-05-18,2018-07-03,NE,NE
361,CEEBC5,BONS_VENTOS_CACIMBAS,21.0,-3.9239,-41.0282,2018-05-18,2018-07-03,NE,NE
362,RNECVD,CABEÇO_VERMELHO_II,16.8,-5.4948,-35.9877,2018-05-22,2018-07-03,NE,NE
363,RNECVE,CABEÇO_VERMELHO,28.6,-5.4928,-36.0037,2018-05-22,2018-07-03,NE,NE
364,CEECVA,CATAVENTOS_ACARAÚ_I,28.0,-2.843,-40.0631,2018-05-29,2018-07-03,NE,NE
365,CEEBC2,BONS_VENTOS_CACIMBAS,23.1,-3.8884,-41.0401,2018-06-16,2018-07-03,NE,NE
366,CEEBC7,BONS_VENTOS_CACIMBAS,16.8,-3.8662,-41.0382,2018-06-16,2018-07-03,NE,NE
367,BAEBVT,BOA_VISTA_DA_LAGOINH,30.0,-11.7614,-41.3893,2018-06-29,2018-07-03,NE,NE
368,BAESMR,VENTOS_DO_SÃO_MÁRIO,30.0,-11.5874,-41.2285,2018-06-29,2018-07-03,NE,NE
369,BAESPL,VENTOS_DO_SÃO_PAULO,28.0,-11.5787,-41.3034,2018-06-29,2018-07-03,NE,NE
370,BAESTA,VENTOS_DO_SANTO_ABRA,28.0,-11.6249,-41.3521,2018-06-29,2018-07-03,NE,NE
371,BAESTD,VENTOS_DA_SANTA_DULC,28.0,-11.5985,-41.3394,2018-06-29,2018-07-03,NE,NE
372,BAESTE,VENTOS_DA_SANTA_ESPE,28.0,-11.6075,-41.3157,2018-06-29,2018-07-03,NE,NE
373,BAECLG,CAMPO_LARGO_VII,29.7,-10.5229,-41.4936,2018-07-04,2018-10-08,NE,NE
374,BAECLC,CAMPO_LARGO_III,29.7,-10.5029,-41.5401,2018-08-22,2018-10-08,NE,NE
375,BAECLD,CAMPO_LARGO_IV,29.7,-10.4898,-41.5115,2018-08-22,2018-10-08,NE,NE
376,BAEB01,VENTOS_DA_BAHIA_I,28.6,-11.9851,-41.528,2018-09-07,2018-10-08,NE,NE
377,BAEB03,VENTOS_DA_BAHIA_III,30.8,-11.9747,-41.5221,2018-09-12,2018-10-08,NE,NE
378,BAEB09,VENTOS_DA_BAHIA_IX,28.6,-11.9851,-41.4924,2018-09-12,2018-10-08,NE,NE
379,BAEB18,VENTOS_DA_BAHIA_XVII,28.6,-12.0155,-41.4954,2018-09-12,2018-10-08,NE,NE
380,BAECLA,CAMPO_LARGO_I,29.7,-10.4654,-41.4935,2018-09-21,2018-10-08,NE,NE
381,BAECLP,CAMPO_LARGO_XVI,29.7,-10.4408,-41.4676,2018-09-28,2018-10-08,NE,NE
382,BAECLU,CAMPO_LARGO_XXI,29.7,-10.4496,-41.4481,2018-10-06,2018-12-06,NE,NE
383,PIELB1,AURA_LAGOA_DO_BARRO_,27.0,-8.6983,-41.6357,2018-10-27,2018-12-06,NE,NE
384,BAECLE,CAMPO_LARGO_V,29.7,-10.423,-41.4285,2018-10-31,2018-12-06,NE,NE
385,BAECLR,CAMPO_LARGO_XVIII,29.7,-10.4448,-41.4975,2018-10-31,2018-12-06,NE,NE
386,BAECLF,CAMPO_LARGO_VI,29.7,-10.4211,-41.3957,2018-11-02,2018-12-06,NE,NE
387,PIELB5,AURA_LAGOA_DO_BARRO_,24.0,-8.5934,-41.542,2018-11-02,2018-12-06,NE,NE
388,BAESEM,VENTOS_DE_SANTA_EMÍL,27.3,-11.0064,-41.2271,2018-11-14,2018-12-06,NE,NE
389,BAECLO,CAMPO_LARGO_XV,29.7,-10.5089,-41.4528,2018-11-23,2018-12-06,NE,NE
390,BAESAC,VENTOS_DE_SANTA_APAR,27.3,-10.913,-41.2214,2018-11-24,2018-12-06,NE,NE
391,BAESAU,VENTOS_DE_SANTA_AURO,27.3,-10.9761,-41.2199,2018-11-24,2018-12-06,NE,NE
392,BAESBE,VENTOS_DA_SANTA_BEAT,27.3,-10.9397,-41.2289,2018-11-24,2018-12-06,NE,NE
393,BAESGA,VENTOS_DO_SÃO_GABRIE,27.3,-10.9582,-41.2334,2018-11-24,2018-12-06,NE,NE
394,PIELB7,AURA_LAGOA_DO_BARRO_,27.0,-8.6756,-41.6345,2018-11-27,2018-12-06,NE,NE
395,PIEQN3,AURA_QUEIMADA_NOVA_0,9.0,-8.6674,-41.6308,2018-12-01,2018-12-06,NE,NE
396,BAEB02,SERRA_DA_BABILÔNIA_I,28.2,-11.0955,-41.3057,2018-12-12,2018-12-26,NE,NE
397,BAEB06,SERRA_DA_BABILÔNIA_V,25.85,-11.049,-41.3252,2018-12-12,2018-12-26,NE,NE
398,BAEB07,SERRA_DA_BABILÔNIA_V,28.2,-11.0566,-41.3155,2018-12-12,2018-12-26,NE,NE
399,BAEB08,SERRA_DA_BABILÔNIA_V,28.2,-11.0837,-41.301,2018-12-12,2018-12-26,NE,NE
400,BAEB10,SERRA_DA_BABILÔNIA_X,28.2,-11.0681,-41.3188,2018-12-12,2018-12-26,NE,NE
401,BAEB11,SERRA_DA_BABILÔNIA_X,28.2,-11.0769,-41.3216,2018-12-12,2018-12-26,NE,NE
402,BAEB12,SERRA_DA_BABILÔNIA_X,28.2,-11.0989,-41.3158,2018-12-12,2018-12-26,NE,NE
403,BAEB9,SERRA_DA_BABILÔNIA_I,28.2,-11.0902,-41.3154,2018-12-12,2018-12-26,NE,NE
404,PIELB2,AURA_LAGOA_DO_BARRO_,27.0,-8.6538,-41.5654,2018-12-13,2018-12-26,NE,NE
405,PIELB6,AURA_LAGOA_DO_BARRO_,27.0,-8.633,-41.5608,2018-12-18,2018-12-26,NE,NE
406,BAECLB,CAMPO_LARGO_II,29.7,-10.511,-41.4545,2018-12-21,2018-12-26,NE,NE
407,PIELB3,AURA_LAGOA_DO_BARRO_,27.0,-8.6137,-41.5514,2018-12-21,2018-12-26,NE,NE
408,CEEGOB,GOIABEIRA,23.1,-4.5921,-37.7139,2018-12-22,2019-01-15,NE,NE
409,CEEPTM,PITOMBEIRA,27.3,-4.6006,-37.6489,2018-12-22,2019-01-15,NE,NE
410,CEESCT,SANTA_CATARINA,18.9,-4.5945,-37.682,2018-12-22,2019-01-15,NE,NE
411,CEEUBA,UBATUBA,12.6,-4.6566,-37.6123,2018-12-22,2019-01-15,NE,NE
412,CEEVHZ,VENTOS_DE_HORIZONTE,16.8,-4.6228,-37.6904,2018-12-22,2019-01-15,NE,NE
413,RNECUT,DREEN_CUTIA,23.1,-5.1034,-35.9031,2018-12-22,2019-01-15,NE,NE
414,MAEDS3,DELTA_5_II,27.0,-2.6723,-42.6037,2018-12-28,2019-01-15,NE,N
415,MAEDT9,DELTA_5_I,27.0,-2.6962,-42.5477,2018-12-28,2019-01-15,NE,N
416,PIELB4,AURA_LAGOA_DO_BARRO_,27.0,-8.5934,-41.542,2018-12-28,2019-01-15,NE,NE
417,RNEENE,ESPERANÇA_DO_NORDEST,27.3,-5.0828,-35.9552,2018-12-28,2019-01-15,NE,NE
418,RNEGUA,DREEN_GUAJIRU,21.0,-5.0924,-35.9073,2018-12-28,2019-01-15,NE,NE
419,RNEMHE,GE_MARIA_HELENA,27.3,-5.0681,-36.0145,2018-12-28,2019-01-15,NE,NE
420,RNEPOT,POTIGUAR,27.3,-5.0619,-35.9048,2018-12-28,2019-01-15,NE,NE
421,RNEJAN,GE_JANGADA,27.3,-5.0575,-36.0146,2018-12-29,2019-01-15,NE,NE
422,BAEURU,UMBURANAS_21,22.5,-10.6617,-41.604,2019-01-04,2019-01-15,NE,NE
423,RNEBE1,BOA_ESPERANÇA_I,30.8,-5.5294,-35.9725,2019-01-05,2019-01-15,NE,NE
424,RNEPVN,PARAÍSO_DOS_VENTOS_D,27.3,-5.0848,-35.9444,2019-01-05,2019-01-15,NE,NE
425,MAEDS1,DELTA_6_I,29.7,-2.6889,-42.5676,2019-01-10,2019-01-15,NE,N
426,MAEDS2,DELTA_6_II,24.3,-2.6576,-42.6127,2019-01-25,2019-03-12,NE,N
427,RNESB1,SÃO_BENTO_DO_NORTE_I,23.1,-5.1274,-35.9326,2019-01-29,2019-03-12,NE,NE
428,RNESB2,SÃO_BENTO_DO_NORTE_I,23.1,-5.1466,-35.9362,2019-01-29,2019-03-12,NE,NE
429,RNESM2,SÃO_MIGUEL_II,21.0,-5.1566,-35.9982,2019-02-02,2019-03-12,NE,NE
430,BAEUR8,UMBURANAS_8,25.0,-10.6045,-41.5,2019-02-06,2019-03-12,NE,NE
431,BAEURP,UMBURANAS_16,25.0,-10.5938,-41.5138,2019-02-06,2019-03-12,NE,NE
432,BAEURQ,UMBURANAS_17,22.5,-10.7118,-41.6098,2019-02-06,2019-03-12,NE,NE
433,RNESM1,SÃO_MIGUEL_I,21.0,-5.154,-35.9853,2019-02-14,2019-03-12,NE,NE
434,RNESM3,SÃO_MIGUEL_III,21.0,-5.156,-35.9994,2019-02-14,2019-03-12,NE,NE
435,BAEURK,UMBURANAS_11,15.0,-10.7061,-41.5705,2019-02-21,2019-03-12,NE,NE
436,BAEURS,UMBURANAS_19,25.0,-10.6846,-41.6105,2019-02-22,2019-03-12,NE,NE
437,BAEURY,UMBURANAS_25,17.5,-10.6523,-41.5799,2019-03-01,2019-03-12,NE,NE
438,BAEURM,UMBURANAS_13,20.0,-10.6663,-41.57,2019-03-08,2019-03-12,NE,NE
439,BAEURI,UMBURANAS_9,17.5,-10.7191,-41.603,2019-03-13,2019-06-06,NE,NE
440,BAEURW,UMBURANAS_23,15.0,-10.6373,-41.6102,2019-03-13,2019-06-06,NE,NE
441,BAEURR,UMBURANAS_18,7.5,-10.5969,-41.5336,2019-03-15,2019-06-06,NE,NE
442,BAEURJ,UMBURANAS_10,20.0,-10.7098,-41.5869,2019-03-19,2019-06-06,NE,NE
443,BAEURF,UMBURANAS_6,20.0,-10.6624,-41.5358,2019-03-21,2019-06-06,NE,NE
444,BAEURE,UMBURANAS_5,17.5,-10.6271,-41.5011,2019-03-30,2019-06-06,NE,NE
445,BAEURB,UMBURANAS_2,25.0,-10.6638,-41.507,2019-04-05,2019-06-06,NE,NE
446,BAEURO,UMBURANAS_15,20.0,-10.6178,-41.5308,2019-04-05,2019-06-06,NE,NE
447,RNESB3,SÃO_BENTO_DO_NORTE_I,23.1,-5.0743,-36.0307,2019-04-08,2019-06-06,NE,NE
448,BAEURC,UMBURANAS_3,20.0,-10.6618,-41.5209,2019-04-09,2019-06-06,NE,NE
449,BAELA3,LARANJEIRAS_III,25.0,-11.0354,-42.6321,2019-04-24,2019-06-06,NE,NE
450,BAELA9,LARANJEIRAS_IX,25.0,-11.0812,-42.618,2019-04-24,2019-06-06,NE,NE
451,BAEURA,UMBURANAS_1,25.0,-10.6813,-41.5299,2019-04-24,2019-06-06,NE,NE
452,BAEDF8,ZEUS_II,29.4,-9.9699,-40.8816,2019-08-30,2020-01-08,NE,NE
453,BAEAN2,ANGICAL_2,10.0,-14.419,-42.6419,2019-09-17,2020-01-08,NE,NE
454,BAECQ2,COQUEIRINHO_2,16.0,-14.5031,-42.6514,2019-09-19,2020-01-08,NE,NE
455,BAEPPG,PAPAGAIO,10.0,-14.4815,-42.6409,2019-10-04,2020-01-08,NE,NE
456,MAED72,DELTA_7_II,35.1,-2.6981,-42.5892,2019-10-15,2020-01-08,NE,N
457,MAED7I,DELTA_7_I,27.0,-2.6809,-42.6001,2019-10-16,2020-01-08,NE,N
458,MAED8I,DELTA_8_I,35.1,-2.7017,-42.5704,2019-11-01,2020-01-08,NE,N
459,BAECAU,ACAUÃ,6.0,-14.4128,-42.6599,2019-11-13,2020-01-08,NE,NE
460,BAETM2,TAMANDUÁ_MIRIM_2,16.0,-14.4688,-42.6712,2019-11-14,2020-01-08,NE,NE
461,BAETE2,TEIÚ_2,8.0,-14.4452,-42.6917,2019-11-20,2020-04-22,NE,NE
462,BAEARA,ARAPAPA,4.0,-14.4319,-42.6919,2019-11-21,2020-05-04,NE,NE
463,RNUE15,UNIÃO_DOS_VENTOS_15,31.5,-5.2942,-35.7466,2019-12-17,2020-05-04,NE,NE
464,RNUE16,UNIÃO_DOS_VENTOS_16,28.875,-5.2637,-35.7638,2019-12-19,2020-05-04,NE,NE
465,RNEVA2,VILA_ACRE_II,31.185,-5.0447,-37.0245,2019-12-25,2020-01-08,NE,NE
466,BAECT2,CAITITU_2,10.0,-14.3318,-42.6128,2020-01-28,2020-01-08,NE,NE
467,BAECT3,CAITITU_3,10.0,-14.3202,-42.6103,2020-01-29,2020-04-22,NE,NE
468,RNECE2,VENTOS_DE_VILA_CEARÁ,31.185,-5.1057,-37.0368,2020-02-08,2020-04-22,NE,NE
469,BAECO3,CORRUPIÃO_3,10.0,-14.2702,-42.5755,2020-02-13,2020-04-22,NE,NE
470,BAECAR,CARCARÁ,10.0,-14.2836,-42.5933,2020-02-14,2020-04-22,NE,NE
471,RNECE1,VENTOS_DE_VILA_CEARÁ,31.185,-5.1271,-37.0368,2020-02-29,2020-04-22,NE,NE
472,RNERN1,VILA_RIO_GRANDE_DO_N,25.2,-5.1569,-37.0209,2020-03-25,2020-04-22,NE,NE
473,RNEPB2,VENTOS_DE_VILA_PARAÍ,34.65,-5.1055,-36.9771,2020-04-18,2020-04-27,NE,NE
474,RNERN2,VILA_RIO_GRANDE_DO_N,37.8,-5.141,-37.0401,2020-04-18,2020-04-27,NE,NE
475,BAEJ20,VENTOS_DE_SAO_JANUAR,50.4,-10.4419,-40.4614,2020-05-14,2020-06-22,NE,NE
476,RNEPI3,VILA_PIAUI_III,42.0,-5.1025,-37.0636,2020-05-19,2020-06-22,NE,NE
477,RNEVS1,VILA_SERGIPE_I,37.8,-5.1482,-37.0622,2020-05-27,2020-06-22,NE,NE
478,RNEPB1,VENTOS_DE_VILA_PARAI,34.65,-5.13,-36.977,2020-05-28,2020-06-22,NE,NE
479,CEJAI,JANDAIA_I,24.0,-4.4129,-37.8761,2020-05-30,2020-06-22,NE,NE
480,CEJAN,JANDAIA,27.0,-4.4096,-37.8171,2020-05-30,2020-06-22,NE,NE
481,CESCL,SÃO_CLEMENTE,21.0,-4.4088,-37.8442,2020-05-30,2020-06-22,NE,NE
482,RNEVS2,VILA_SERGIPE_II,37.8,-5.1601,-37.0639,2020-05-30,2020-06-22,NE,NE
483,CENSF,NOSSA_SENHORA_DE_FÁT,29.1,-4.4339,-37.8697,2020-06-02,2020-06-22,NE,NE
484,CESJN,SÃO_JANUÁRIO,21.0,-4.4914,-37.8025,2020-06-02,2020-06-22,NE,NE
485,BAEJ21,VENTOS_DE_SAO_JANUAR,50.4,-10.4267,-40.5056,2020-06-03,2020-06-22,NE,NE
486,RNEVS3,VILA_SERGIPE_III,16.8,-5.1765,-37.081,2020-06-09,2020-06-22,NE,NE
487,RNEPI1,VILA_PIAUI_I,37.8,-5.0971,-37.1047,2020-07-17,2020-10-14,NE,NE
488,BAEJ22,VENTOS_DE_SAO_JANUAR,50.4,-10.4736,-40.5239,2020-07-31,2020-10-14,NE,NE
489,RNEPI2,VILA_PIAUI_II,37.8,-5.0982,-37.0795,2020-08-27,2020-10-14,NE,NE
490,BASJ04,VENTOS_DE_SAO_JANUAR,29.4,-10.3869,-40.4589,2020-09-15,2020-10-14,NE,NE
491,BASJ14,VENTOS_DE_SAO_JANUAR,42.0,-10.3678,-40.4422,2020-09-16,2020-10-14,NE,NE
492,BASJ13,VENTOS_DE_SAO_JANUAR,42.0,-10.3448,-40.4378,2020-09-17,2020-10-14,NE,NE
493,RNEMA3,VILA_MARANHAO_III,31.95,-5.1293,-37.0052,2020-09-29,2021-01-18,NE,NE
494,BASJ01,VENTOS_DE_SAO_JANUAR,33.6,-10.3227,-40.4367,2020-10-02,2021-01-18,NE,NE
495,RNESF1,SAO_FERNANDO_1,76.23,-5.1769,-36.0113,2020-10-03,2021-01-18,NE,NE
496,BASJ03,VENTOS_DE_SAO_JANUAR,33.6,-10.3105,-40.4404,2020-11-06,2021-01-18,NE,NE
497,PISA02,VENTOS_DE_SANTA_ANGE,31.5,-8.5442,-41.5751,2020-11-12,2021-01-18,NE,NE
498,PISA03,VENTOS_DE_SANTA_ANGE,31.5,-8.5764,-41.5778,2020-11-12,2021-01-18,NE,NE
499,PISA04,VENTOS_DE_SANTA_ANGE,31.5,-8.6002,-41.5908,2020-11-12,2021-01-18,NE,NE
500,PIVSA1,VENTOS_DE_SANTA_ANGE,31.5,-8.5198,-41.5584,2020-11-12,2021-01-18,NE,NE
501,BAESEV,SERRA_DO_VENTO,31.185,-9.816,-41.0389,2020-11-19,2021-01-18,NE,NE
502,BASJ06,VENTOS_DE_SAO_JANUAR,37.8,-10.4109,-40.4664,2020-11-30,2021-01-18,NE,NE
503,BASJ05,VENTOS_DE_SAO_JANUAR,42.0,-10.2898,-40.4341,2020-12-03,2021-01-18,NE,NE
504,BAESEF,SERRA_DO_FOGO,31.185,-9.8051,-41.0227,2020-12-15,2021-01-18,NE,NE
505,RNESF2,SAO_FERNANDO_2,72.765,-5.1801,-36.0287,2020-12-15,2021-01-18,NE,NE
506,RNECEA,VILA_CEARA_I,31.95,-5.1009,-37.0151,2020-12-19,2021-01-18,NE,NE
507,BAECNA,CASA_NOVA_A,27.0,-9.2602,-41.0168,2020-12-24,2021-01-18,NE,NE
508,RNESF3,SAO_FERNANDO_3,24.255,-5.1529,-36.0422,2020-12-25,2021-01-18,NE,NE
509,PISA05,VENTOS_DE_SANTA_ANGE,31.5,-8.4625,-41.4451,2020-12-29,2021-01-18,NE,NE
510,PISA06,VENTOS_DE_SANTA_ANGE,31.5,-8.4891,-41.4516,2020-12-30,2021-01-18,NE,NE
511,PISA07,VENTOS_DE_SANTA_ANGE,25.2,-8.5306,-41.4805,2020-12-30,2021-01-18,NE,NE
512,BAEUMC,UMBURANA_DE_CHEIRO,31.185,-9.8355,-41.0427,2020-12-31,2021-08-11,NE,NE
513,PISA08,VENTOS_DE_SANTA_ANGE,31.5,-8.5608,-41.4984,2020-12-31,2021-01-18,NE,NE
514,PISA09,VENTOS_DE_SANTA_ANGE,44.1,-8.5952,-41.4795,2020-12-31,2021-01-18,NE,NE
515,PISA10,VENTOS_DE_SANTA_ANGE,40.95,-8.6329,-41.4971,2020-12-31,2021-01-18,NE,NE
516,PISA11,VENTOS_DE_SANTA_ANGE,44.1,-8.6671,-41.5098,2020-12-31,2021-01-18,NE,NE
517,PISA14,VENTOS_DE_SANTA_ANGE,42.6,-8.7088,-41.5181,2020-12-31,2021-01-18,NE,NE
518,BASJ11,VENTOS_DE_SAO_JANUAR,42.0,-10.4409,-41.5723,2021-01-06,2021-01-18,NE,NE
519,CEESR1,SERROTE_I,25.2,-4.5358,-37.6953,2021-01-13,2021-03-03,NE,NE
520,CEESR2,SERROTE_II,25.2,-3.2882,-39.3328,2021-01-13,2021-03-03,NE,NE
521,CEESR3,SERROTE_III,21.0,-3.3044,-39.3521,2021-01-13,2021-03-03,NE,NE
522,CEESR4,SERROTE_IV,16.8,-3.3077,-39.3903,2021-01-13,2021-03-03,NE,NE
523,CEESR5,SERROTE_V,29.4,-3.3174,-39.3695,2021-01-27,2021-03-03,NE,NE
524,PISA21,VENTOS_DE_SANTA_ANGE,30.0,-8.8066,-41.4651,2021-01-28,2021-03-03,NE,NE
525,RNEMA1,VILA_MARANHAO_I,31.95,-5.076,-36.993,2021-02-11,2021-03-03,NE,NE
526,PISA20,VENTOS_DE_SANTA_ANGE,30.0,-8.7818,-41.452,2021-02-13,2021-10-01,NE,NE
527,BASJ10,VENTOS_DE_SAO_JANUAR,42.0,-10.2651,-40.4306,2021-02-19,2021-03-03,NE,NE
528,BAEC09,CAMPO_LARGO_IX,25.2,-10.4626,-41.394,2021-02-23,2021-03-03,NE,NE
529,CEESR6,SERROTE_VI,29.4,-3.2275,-39.3729,2021-02-27,2021-04-13,NE,NE
530,BAEC10,CAMPO_LARGO_X,33.6,-10.5067,-41.4868,2021-03-05,2021-04-13,NE,NE
531,PISA18,VENTOS_DE_SANTA_ANGE,31.5,-8.7389,-41.3999,2021-03-13,2021-04-13,NE,NE
532,PISA12,VENTOS_DE_SANTA_ANGE,30.0,-8.7616,-41.4303,2021-03-19,2021-04-13,NE,NE
533,PISA13,VENTOS_DE_SANTA_ANGE,28.35,-8.7664,-41.4087,2021-03-19,2021-04-13,NE,NE
534,CEESR8,SERROTE_VIII,29.4,-3.338,-39.3294,2021-03-23,2021-04-13,NE,NE
535,PISA15,VENTOS_DE_SANTA_ANGE,44.1,-8.722,-41.4741,2021-03-27,2021-04-13,NE,NE
536,RNESF4,SAO_FERNANDO_4,83.16,-5.1288,-36.015,2021-03-30,2021-04-13,NE,NE
537,BAEC14,CAMPO_LARGO_XIV,21.0,-10.4468,-41.5008,2021-03-31,2021-07-07,NE,NE
538,RNEMA2,VILA_MARANHAO_II,31.95,-5.052,-36.9945,2021-03-31,2021-07-07,NE,NE
539,BAEC17,CAMPO_LARGO_XVII,29.4,-10.463,-41.5141,2021-04-07,2021-07-07,NE,NE
540,BAEIM2,INHAMBU_2,16.45,-14.4514,-42.6505,2021-04-07,2021-07-07,NE,NE
541,PISA17,VENTOS_DE_SANTA_ANGE,47.25,-8.7159,-41.4209,2021-04-07,2021-04-13,NE,NE
542,PISA19,VENTOS_DE_SANTA_ANGE,30.0,-8.7462,-41.4716,2021-04-07,2021-04-13,NE,NE
543,BAECO2,CORRUPIAO_2,18.8,-14.4154,-42.6411,2021-04-09,2021-07-07,NE,NE
544,CEESR7,SERROTE_VII,29.4,-3.3157,-39.3244,2021-04-09,2021-07-07,NE,NE
545,RNEP31,POTIGUAR_B_31,45.045,-5.2696,-37.1139,2021-04-20,2021-07-07,NE,NE
546,BAEARZ,ARARINHA_AZUL,21.15,-14.4127,-42.6498,2021-04-27,2021-07-07,NE,NE
547,RNEP32,POTIGUAR_B_32,48.51,-5.1837,-36.9827,2021-04-30,2021-07-07,NE,NE
548,BAEC08,CAMPO_LARGO_VIII,33.6,-10.46,-41.3932,2021-05-04,2021-07-07,NE,NE
549,BAEB0B,SERRA_DA_BABILONIA_B,30.6,-11.1266,-41.3264,2021-05-15,2021-07-07,NE,NE
550,BAEB0A,SERRA_DA_BABILONIA_A,21.2,-11.0783,-41.2983,2021-05-18,2021-07-07,NE,NE
551,PISA16,VENTOS_DE_SANTA_ANGE,31.5,-8.7326,-41.559,2021-05-19,2021-08-25,NE,NE
552,BAEC19,CAMPO_LARGO_XIX,33.6,-10.4409,-41.5723,2021-05-21,2021-07-07,NE,NE
553,RNEP33,POTIGUAR_B_33,58.905,-5.2682,-37.154,2021-06-02,2021-07-26,NE,NE
554,RNEMT1,VENTOS_DE_VILA_MATO_,58.905,-5.1722,-37.1082,2021-06-11,2021-07-26,NE,NE
555,BAEB0C,SERRA_DA_BABILONIA_C,26.5,-11.1328,-41.3286,2021-06-19,2021-07-26,NE,NE
556,BAEC22,CAMPO_LARGO_XXII,33.6,-10.5094,-41.6117,2021-06-25,2021-11-05,NE,NE
557,BAEC12,CAMPO_LARGO_XII,54.6,-10.4054,-41.4486,2021-06-25,2021-07-26,NE,NE
558,BAEC20,CAMPO_LARGO_XX,37.8,-10.4805,-41.5769,2021-06-25,2021-07-26,NE,NE
559,RNECDU,COSTA_DAS_DUNAS,28.4,-5.2334,-35.4885,2021-06-25,2021-07-26,NE,NE
560,RNETS2,TERRA_SANTA_II,31.95,-5.2298,-36.1029,2021-06-29,2021-08-25,NE,NE
561,BAEB0D,SERRA_DA_BABILONIA_D,30.6,-11.1427,-41.3316,2021-07-06,2021-08-25,NE,NE
562,RNEAV2,AVENTURA_II,21.0,-5.3211,-35.7351,2021-07-08,2021-07-26,NE,NE
563,RNEAV3,AVENTURA_III,25.2,-5.3288,-35.7594,2021-07-08,2021-07-26,NE,NE
564,RNEAV4,AVENTURA_IV,29.4,-5.3421,-35.7786,2021-07-08,2021-07-26,NE,NE
565,RNEAV5,AVENTURA_V,29.4,-5.3485,-35.7951,2021-07-08,2021-07-26,NE,NE
566,RNEM10,VENTOS_DE_SANTA_MART,63.0,-5.8504,-35.9419,2021-07-14,2021-08-11,NE,NE
567,RNEFIB,FIGUEIRA_BRANCA,10.65,-5.2424,-35.4615,2021-07-17,2021-08-11,NE,NE
568,BAEB0E,SERRA_DA_BABILONIA_E,26.5,-11.1427,-41.3316,2021-07-24,2021-08-11,NE,NE
569,PBCH7,CHAFARIZ_7,34.65,-6.924,-36.8607,2021-07-29,2021-08-12,NE,NE
570,RNEM09,VENTOS_DE_SANTA_MART,63.0,-5.8192,-35.9228,2021-07-29,2021-08-11,NE,NE
571,BAEB0F,SERRA_DA_BABILONIA_F,21.2,-11.1594,-41.3361,2021-08-03,2021-08-11,NE,NE
572,RNECM1,UEE_CMR_CUMARU_01,42.0,-5.1525,-35.7644,2021-08-04,2021-08-11,NE,NE
573,RNEGAM,GAMELEIRA,17.75,-5.2444,-35.4591,2021-08-06,2021-08-18,NE,NE
574,PBCH1,CHAFARIZ_1,34.65,-6.9729,-36.8793,2021-08-13,2021-08-24,NE,NE
575,RNECM2,CUMARU_II,42.0,-5.1813,-35.7806,2021-08-13,2021-08-24,NE,NE
576,RNETS1,TERRA_SANTA_I,60.35,-5.2569,-36.0575,2021-08-14,2021-08-24,NE,NE
577,RNEM11,VENTOS_DE_SANTA_MART,58.8,-5.7831,-35.905,2021-08-19,2021-08-24,NE,NE
578,PBCH6,CHAFARIZ_6,31.185,-6.9786,-36.8539,2021-08-23,2021-10-01,NE,NE
579,RNEM13,VENTOS_DE_SANTA_MART,63.0,-5.7111,-35.8958,2021-08-31,2021-10-01,NE,NE
580,BAEC11,CAMPO_LARGO_XI,16.8,-10.4027,-41.4464,2021-09-02,2021-10-01,NE,NE
581,BAEC13,CAMPO_LARGO_XIII,42.0,-10.4025,-41.4935,2021-09-02,2021-10-01,NE,NE
582,RNTEB1,TODA_ENERGIA_DO_BRAS,31.095,-5.0922,-37.1055,2021-09-07,2021-10-01,NE,NE
583,PBCH2,CHAFARIZ_2,34.65,-6.9969,-36.894,2021-09-15,2021-10-01,NE,NE
584,RNEFTO,FAROL_DE_TOUROS,24.85,-5.255,-35.5018,2021-09-16,2021-10-01,NE,NE
585,RNEM12,VENTOS_DE_SANTA_MART,58.8,-5.7592,-35.8861,2021-09-17,2021-10-01,NE,NE
586,PBCH3,CHAFARIZ_3,34.65,-7.0016,-36.8983,2021-09-25,2021-10-01,NE,NE
587,PBCH5,CHAFARIZ_5,34.65,-7.0039,-36.9131,2021-09-25,2021-10-01,NE,NE
588,RNEM01,VENTOS_DE_SANTA_MART,63.0,-5.73,-35.9053,2021-10-14,2021-11-05,NE,NE
589,RNECM3,CUMARU_III,42.0,-5.1319,-35.8098,2021-10-16,2021-11-05,NE,NE
590,RNECM4,CUMARU_IV,42.0,-5.16,-35.7833,2021-10-16,2021-11-05,NE,NE
591,RNECM5,CUMARU_V,37.8,-5.1458,-35.7989,2021-10-16,2021-11-05,NE,NE
592,CEESM5,SERRA_DO_MATO_V,21.0,-3.2322,-39.402,2021-10-21,2021-11-05,NE,NE
593,PBCH4,CHAFARIZ_4,34.65,-7.0337,-36.9355,2021-10-21,2021-11-05,NE,NE
594,CEESM1,SERRA_DO_MATO_I,21.0,-3.2707,-39.3963,2021-10-28,2021-11-05,NE,NE
595,CEESM2,SERRA_DO_MATO_II,21.0,-3.276,-39.3513,2021-10-29,2021-12-02,NE,NE
596,CEESM3,SERRA_DO_MATO_III,21.0,-3.2625,-39.3482,2021-10-29,2021-12-02,NE,NE
597,RNEFG2,FILGUEIRA_II,28.4,-5.0127,-37.0396,2021-11-04,2021-12-02,NE,NE
598,PBVA1,VENTOS_DE_ARAPUA_1,24.255,-7.0482,-36.9524,2021-11-11,2021-12-02,NE,NE
599,PBVA2,VENTOS_DE_ARAPUA_2,34.65,-7.0292,-36.9624,2021-11-11,2021-12-02,NE,NE
600,PBVA3,VENTOS_DE_ARAPUA_3,13.86,-7.0508,-36.9679,2021-11-11,2021-12-02,NE,NE
601,BAES17,VENTOS_DE_SANTA_ESPE,42.0,-11.508,-41.2946,2021-11-13,2021-12-02,NE,NE
602,BAES21,VENTOS_DE_SANTA_ESPE,46.2,-11.5501,-41.2845,2021-11-13,2021-12-02,NE,NE
603,BAES26,VENTOS_DE_SANTA_ESPE,46.2,-11.5316,-41.3209,2021-11-13,2021-12-02,NE,NE
604,CEESM6,SERRA_DO_MATO_VI,16.8,-3.2456,-39.4073,2021-11-18,2021-12-02,NE,NE
605,RNEM14,VENTOS_DE_SANTA_MART,63.0,-5.715,-35.8828,2021-11-19,2021-12-02,NE,NE
606,RNEEP1,VILA_ESPIRITO_SANTO_,33.6,-5.1869,-37.1132,2021-11-26,2021-12-02,NE,NE
607,RNESR2,SANTA_ROSA_E_MUNDO_N,29.4,-5.8835,-36.1975,2021-12-01,2021-12-28,NE,NE
608,BAEB14,VENTOS_DA_BAHIA_XIV,33.0,-12.0585,-41.4394,2021-12-03,2021-12-28,NE,NE
609,PBLG4,LAGOA_4,20.79,-6.8837,-36.8429,2021-12-03,2021-12-28,NE,NE
610,BAETE3,TEIU_3,23.5,-14.4088,-42.6486,2021-12-04,2022-01-27,NE,NE
611,CEESM4,SERRA_DO_MATO_IV,21.0,-3.2201,-39.3962,2021-12-04,2021-12-28,NE,NE
612,PIEQN1,AURA_QUEIMADA_NOVA_0,32.2,-8.6838,-41.5891,2021-12-08,2021-12-28,NE,NE
613,PIEQN2,AURA_QUEIMADA_NOVA_0,50.6,-8.6288,-41.595,2021-12-08,2021-12-28,NE,NE
614,BAEB13,VENTOS_DA_BAHIA_XIII,49.5,-12.1461,-41.494,2021-12-15,2021-12-28,NE,NE
615,PBLG3,LAGOA_3,34.65,-6.8712,-36.8262,2021-12-18,2021-12-28,NE,NE
616,RNESR5,SANTA_ROSA_E_MUNDO_N,25.2,-5.9004,-36.2055,2021-12-18,2021-12-28,NE,NE
617,PEEPF2,PAU_FERRO_II,77.0,-9.0365,-38.0999,2021-12-22,2022-01-27,NE,NE
618,PEETA2,TACAICO_II,77.0,-9.0167,-38.0747,2021-12-22,2022-01-27,NE,NE
619,RNEJ23,VENTOS_DE_SAO_JANUAR,58.8,-5.8908,-35.9608,2021-12-24,2021-12-28,NE,NE
620,BAES22,VENTOS_DE_SANTA_ESPE,46.2,-11.5293,-41.2728,2021-12-30,2022-01-27,NE,NE
621,BAES25,VENTOS_DE_SANTA_ESPE,25.2,-11.5941,-41.3396,2021-12-31,2022-01-27,NE,NE
622,PBCN2,CANOAS_2,34.65,-6.8825,-36.7914,2021-12-31,2022-01-27,NE,NE
623,PBCN3,CANOAS_3,34.65,-6.8721,-36.7594,2021-12-31,2022-01-27,NE,NE
624,PBCN4,CANOAS_4,34.65,-6.8436,-36.7355,2021-12-31,2022-01-27,NE,NE
625,RNEEP5,VILA_ESPIRITO_SANTO_,37.8,-5.2347,-37.1342,2021-12-31,2022-01-27,NE,NE
626,RNESR4,SANTA_ROSA_E_MUNDO_N,33.6,-5.8744,-36.2667,2022-01-01,2022-01-27,NE,NE
627,RNESR3,SANTA_ROSA_E_MUNDO_N,33.6,-5.8537,-36.2604,2022-01-05,2022-01-27,NE,NE
628,RNEEP3,VILA_ESPIRITO_SANTO_,37.8,-5.1994,-37.1536,2022-01-11,2022-02-23,NE,NE
629,BAES15,VENTOS_DE_SANTA_ESPE,46.2,-11.5583,-41.3017,2022-01-13,2022-02-23,NE,NE
630,BAES16,VENTOS_DE_SANTA_ESPE,42.0,-11.5126,-41.2787,2022-01-14,2022-02-23,NE,NE
631,RNEFG1,FILGUEIRA_I,39.05,-5.0207,-36.9989,2022-01-22,2022-02-23,NE,NE
632,BAES13,VENTOS_DE_SANTA_ESPE,33.6,-11.5834,-41.3568,2022-01-27,2022-02-23,NE,NE
633,BAEFDS,FOLHA_DE_SERRA,21.0,-14.55,-42.5806,2022-02-02,2022-03-10,NE,NE
634,BAEJCE,JACARANDA_DO_CERRADO,21.0,-14.5562,-42.582,2022-02-02,2022-03-10,NE,NE
635,BAEB23,VENTOS_DA_BAHIA_XXII,49.5,-12.0752,-41.4953,2022-02-02,2022-02-23,NE,NE
636,BAES08,VENTOS_DE_SANTA_ESPE,25.2,-11.587,-41.3751,2022-02-02,2022-02-23,NE,NE
637,BAEB27,VENTOS_DA_BAHIA_XXVI,49.5,-12.0862,-41.469,2022-02-05,2022-02-23,NE,NE
638,RNESR1,SANTA_ROSA_E_MUNDO_N,33.6,-5.9132,-36.1539,2022-02-08,2022-02-23,NE,NE
639,BAEABL,ABIL,23.7,-14.2778,-42.5435,2022-02-10,2022-03-10,NE,NE
640,BAEJAB,JABUTICABA,9.0,-14.3257,-42.5719,2022-02-10,2022-03-10,NE,NE
641,BAETAB,TABUA,15.0,-14.3159,-42.5721,2022-02-10,2022-03-10,NE,NE
642,BAEVAQ,VAQUETA,23.4,-14.2596,-42.5543,2022-02-10,2022-03-10,NE,NE
643,RNEEP2,VILA_ESPIRITO_SANTO_,37.8,-5.1877,-37.1357,2022-02-18,2022-03-10,NE,NE
644,RNEAL2,VILA_ALAGOAS_II,21.0,-5.1718,-37.0928,2022-02-18,2022-02-23,NE,NE
645,RNEEP4,VILA_ESPIRITO_SANTO_,37.8,-5.2251,-37.1547,2022-02-25,2022-03-10,NE,NE
646,BAEPSA,PAU_SANTO,18.9,-14.1,-42.0336,2022-03-22,2022-05-24,NE,NE
647,RNEAF1,AFONSO_BEZERRA_I,29.4,-5.32,-36.51,2022-04-30,2022-05-24,NE,NE
648,RNEAF2,AFONSO_BEZERRA_II,29.4,-5.36,-36.47,2022-04-30,2022-05-24,NE,NE
649,RNEAF3,AFONSO_BEZERRA_III,29.4,-5.41,-36.49,2022-05-03,2022-05-24,NE,NE
650,RNEAF4,AFONSO_BEZERRA_IV,16.8,-5.35,-36.47,2022-05-03,2022-05-24,NE,NE
651,RNEAG1,ANGICOS_I,25.2,-5.32,-36.49,2022-05-14,2022-05-24,NE,NE
652,RNEAG2,ANGICOS_II,29.4,-5.36,-36.5,2022-05-14,2022-05-24,NE,NE
653,BAECAC,ACACIA,16.2,-13.9156,-42.6978,2022-05-18,2022-05-24,NE,NE
654,BAESSA,SAO_SALVADOR,18.9,-13.8379,-42.6486,2022-05-18,2022-05-24,NE,NE
655,BAENGI,ANGICO,8.1,-13.8948,-42.7027,2022-05-24,2022-07-01,NE,NE
656,PIVI15,VENTOS_DE_SANTO_APOL,35.2,-7.9702,-40.5994,2022-06-04,2022-07-01,NE,NE
657,BAOI22,OITIS_22,49.5,-9.07,-41.71,2022-06-07,2023-01-05,NE,NE
658,BAETBQ,TABOQUINHA,18.9,-13.9077,-42.705,2022-06-08,2022-07-01,NE,NE
659,BAEVLZ,VELLOZIA,18.0,-14.254,-42.5491,2022-06-16,2023-01-05,NE,NE
660,PIVI16,VENTOS_DE_SANTA_ALEX,44.0,-7.9855,-40.58,2022-06-25,2022-07-26,NE,NE
661,PIBER,VENTOS_DE_SAO_BERNAR,44.0,-7.9966,-40.513,2022-07-02,2022-07-26,NE,NE
662,BATU06,TUCANO_VI,49.6,-11.2277,-38.7919,2022-07-08,2022-07-26,NE,NE
663,PIANT,VENTOS_DE_SANTO_ANTE,46.2,-8.0036,-40.5175,2022-07-14,2022-07-26,NE,NE
664,BATU07,TUCANO_VII,55.8,-11.2563,-38.8111,2022-07-21,2023-01-05,NE,NE
665,PIOI05,OITIS_5,16.5,-9.04,-41.75,2022-07-22,2022-09-19,NE,NE
666,PIOI07,UEE_OIT_OITIS_07,44.0,-9.07,-41.73,2022-07-22,2022-09-19,NE,NE
667,PIOI06,UEE_OIT_OITIS_06,49.5,-9.05,-41.74,2022-07-22,2022-08-17,NE,NE
668,BAEGEL,ANGELIM,21.6,-14.04,-42.65,2022-08-05,2022-08-17,NE,NE
669,BAB20,UEE_ARI_BARAUNAS_XX,31.185,-9.79,-41.01,2022-08-11,2022-08-17,NE,NE
670,PIVI18,VENTOS_DE_SAO_JOAO_P,30.8,-7.9886,-40.5613,2022-08-16,2022-09-19,NE,NE
671,PIOI01,UEE_OIT_OITIS_01,33.0,-9.0,-41.72,2022-08-18,2022-09-19,NE,NE
672,BAEFAC,FACHEIO,16.2,-13.99,-42.69,2022-08-23,2022-09-19,NE,NE
673,BAMBD,MORRO_BRANCO_II,31.185,-9.84,-41.04,2022-08-23,2022-09-19,NE,NE
674,BAEMNN,MANINEIRO,13.8,-14.02,-42.68,2022-08-25,2022-09-19,NE,NE
675,BAESBU,SABIU,13.5,-14.02,-42.66,2022-08-25,2022-09-19,NE,NE
676,BAEUMB,UMBUZEIRO,18.9,-13.98,-42.67,2022-08-25,2022-09-19,NE,NE
677,BAJA15,VENTOS_DE_SAO_JANUAR,72.0,-11.08,-41.27,2022-09-01,2023-01-05,NE,NE
678,PIVI05,VENTOS_DE_SANTO_ALDE,39.6,-8.0416,-40.6663,2022-09-02,2022-09-19,NE,NE
679,BAEMLG,MULUNGU,13.5,-14.0055,-42.667,2022-09-03,2022-09-19,NE,NE
680,BAEQUN,QUINA,10.8,-13.9808,-42.6788,2022-09-06,2022-09-19,NE,NE
681,PIOI08,OITIS_08,49.5,-9.0982,-41.7609,2022-09-14,2022-09-19,NE,NE
682,BAB15,BARAUNAS_XV,48.51,-9.75,-40.98,2022-09-17,2022-10-20,NE,NE
683,PIVI04,VENTOS_DE_SAO_CIRIAC,48.4,-8.0469,-40.6841,2022-09-21,2022-10-20,NE,NE
684,PIOI02,OITIS_2,27.5,-9.01,-41.73,2022-09-22,2022-10-20,NE,NE
685,PIVSR2,VENTOS_DE_SAO_ROQUE_,66.0,-8.8056,-41.6504,2022-09-30,2022-10-20,NE,NE
686,PIVSR5,VENTOS_DE_SAO_ROQUE_,49.5,-8.8264,-41.6269,2022-10-01,2022-10-20,NE,NE
687,PIOI03,OITIS_3,49.5,-9.01,-41.75,2022-10-04,2022-10-20,NE,NE
688,PIVI03,VENTOS_DE_SAO_CRISPI,48.4,-8.0355,-40.6761,2022-10-06,2022-10-20,NE,NE
689,PIVSR4,VENTOS_DE_SAO_ROQUE_,49.5,-8.9352,-41.6045,2022-10-08,2022-10-20,NE,NE
690,PIVSR6,VENTOS_DE_SAO_ROQUE_,49.5,-8.8998,-41.5911,2022-10-08,2022-10-20,NE,NE
691,PIVSR1,VENTOS_DE_SAO_ROQUE_,49.5,-8.7646,-41.6575,2022-10-11,2022-10-20,NE,NE
692,BAEA46,ASSURUÁ_4_VI,36.0,-11.0661,-42.603,2022-10-12,2022-10-20,NE,NE
693,RNEJD4,JANDAIRA_IV,27.72,-5.45,-36.01,2022-10-15,2022-11-07,NE,NE
694,PIVI02,VENTOS_DE_SAO_CIRO,35.2,-8.0347,-40.7405,2022-10-15,2022-10-20,NE,NE
695,RNEJD2,JANDAIRA_II,24.255,-5.43,-36.02,2022-10-18,2022-11-07,NE,NE
696,PIOI04,OITIS_4,49.5,-9.02,-41.75,2022-10-21,2022-11-07,NE,NE
697,BAEJUA,JUAZEIRO,18.9,-13.84,-42.69,2022-10-22,2022-11-07,NE,NE
698,BAEJAT,JATAI,16.2,-13.83,-42.69,2022-10-25,2022-11-07,NE,NE
699,BABAQ,BARAUNAS_IV,41.58,-9.67,-41.11,2022-10-27,2022-11-07,NE,NE
700,BAECED,CEDRO,12.0,-14.33,-42.57,2022-10-27,2022-11-07,NE,NE
701,PIVI01,VENTOS_DE_SAO_CAIO,35.2,-7.9955,-40.7694,2022-10-28,2022-11-07,NE,NE
702,BAEAMC,AMESCLA,13.5,-11.1153,-42.6699,2022-11-01,2022-11-23,NE,NE
703,PIVSR8,VENTOS_DE_SAO_ROQUE_,49.5,-8.9155,-41.5576,2022-11-02,2022-11-23,NE,NE
704,CEEGRV,GRAVIER,71.4,-4.755,-37.3361,2022-11-04,2022-11-23,NE,NE
705,RNEJD3,JANDAIRA_III,27.72,-5.43,-36.01,2022-11-04,2022-11-23,NE,NE
706,BAEA41,ASSURUÁ_4_I,36.0,-11.0253,-42.641,2022-11-10,2022-11-23,NE,NE
707,BAJA16,VENTOS_DE_SAO_JANUAR,72.0,-11.1,-41.28,2022-11-17,2022-11-23,NE,NE
708,RNEJD1,JANDAIRA_I,10.395,-5.4199,-36.0166,2022-11-18,2022-11-23,NE,NE
709,PIVSR3,VENTOS_DE_SAO_ROQUE_,49.5,-8.8299,-41.5908,2022-11-22,2022-12-06,NE,NE
710,BAEPDA,PAU_D_AGUA,18.0,-14.5356,-42.5758,2022-11-24,2023-01-05,NE,NE
711,BAEBAB,BARBATIMAO,16.2,-13.8266,-42.7043,2022-11-24,2022-12-06,NE,NE
712,BAEIBM,IMBURANA_MACHO,16.2,-13.8636,-42.6909,2022-12-07,2022-12-14,NE,NE
713,BAJA17,VENTOS_DE_SAO_JANUAR,72.0,-11.13,-41.29,2022-12-09,2022-12-14,NE,NE
714,BAJA18,VENTOS_DE_SAO_JANUAR,72.0,-11.13,-41.3,2022-12-17,2023-01-05,NE,NE
715,BAVE07,VENTOS_DE_SANTA_EUGE,17.1,-11.38,-42.18,2022-12-22,2023-01-05,NE,NE
716,BAVE02,VENTOS_DE_SANTA_EUGE,11.4,-11.37,-42.18,2022-12-23,2023-01-05,NE,NE
717,PBSS06,SERRA_DO_SERIDO_VI,44.0,-6.9731,-36.8014,2022-12-27,2023-01-05,NE,NE
718,BAEA43,ASSURUÁ_4_III,36.0,-11.0603,-42.6306,2022-12-28,2023-01-05,NE,NE
719,RNEBQ1,BOQUEIRAO_I,42.0,-5.7031,-36.1287,2023-01-07,2023-01-16,NE,NE
720,RNEBQ2,BOQUEIRAO_II,37.8,-5.7032,-36.0649,2023-01-07,2023-01-16,NE,NE
721,RNEMV1,MONTE_VERDE_I,67.2,-5.4956,-36.1908,2023-01-07,2023-01-16,NE,NE
722,RNEMV2,MONTE_VERDE_II,67.2,-5.4594,-36.1979,2023-01-07,2023-01-16,NE,NE
723,RNEMV3,MONTE_VERDE_III,58.8,-5.4398,-36.222,2023-01-07,2023-01-16,NE,NE
724,RNEMV4,MONTE_VERDE_IV,46.2,-5.48,-36.2293,2023-01-07,2023-01-16,NE,NE
725,RNEMV5,MONTE_VERDE_V,33.6,-5.4924,-36.2553,2023-01-07,2023-01-16,NE,NE
726,RNEMV6,MONTE_VERDE_VI,46.2,-5.5228,-36.2767,2023-01-07,2023-01-16,NE,NE
727,RNEJR1,JERUSALEM_I,29.4,-5.61,-36.11,2023-01-19,2023-02-01,NE,NE
728,RNEJR2,JERUSALEM_II,29.4,-5.63,-36.11,2023-01-19,2023-02-01,NE,NE
729,RNEJR3,JERUSALEM_III,29.4,-5.65,-36.1,2023-01-19,2023-02-01,NE,NE
730,RNEJR4,JERUSALEM_IV,29.4,-5.68,-36.1,2023-01-19,2023-02-01,NE,NE
731,RNEJR5,JERUSALEM_V,29.4,-5.68,-36.12,2023-01-19,2023-02-01,NE,NE
732,RNEJR6,JERUSALEM_VI,33.6,-5.69,-36.12,2023-01-19,2023-02-01,NE,NE
733,BAEA42,ASSURUÁ_4_II,31.5,-11.0359,-42.6145,2023-01-20,2023-02-28,NE,NE
734,BATU08,TUCANO_VIII,49.6,-11.2859,-38.7991,2023-01-25,2023-02-28,NE,NE
735,BAEA45,ASSURUÁ_4_V,36.0,-11.1073,-42.6292,2023-01-31,2023-02-28,NE,NE
736,BATU10,TUCANO_X,43.4,-11.2985,-38.8013,2023-01-31,2023-02-28,NE,NE
737,PIVSR7,VENTOS_DE_SAO_ROQUE_,49.5,-8.8975,-41.5555,2023-01-31,2023-02-28,NE,NE
738,BAEA44,ASSURUÁ_4_IV,36.0,-11.0839,-42.6266,2023-02-11,2023-02-28,NE,NE
739,BAJA19,VENTOS_DE_SAO_JANUAR,72.0,-11.1399,-41.3085,2023-02-14,2023-02-28,NE,NE
740,BAOI21,OITIS_21,44.0,-9.05,-41.71,2023-02-23,2023-02-28,NE,NE
741,PBSS09,SERRA_DO_SERIDO_IX,49.5,-7.0019,-36.8001,2023-02-24,2023-02-28,NE,NE
742,RNLE03,VENTOS_DE_SANTA_LEIA,67.5,-5.8459,-36.1153,2023-03-07,2023-03-30,NE,NE
743,RNLE04,VENTOS_DE_SANTA_LEIA,67.1,-5.8084,-36.1023,2023-03-07,2023-03-30,NE,NE
744,BATU03,TUCANO_III,43.4,-11.3295,-38.8045,2023-03-18,2023-03-30,NE,NE
745,RNES14,SANTO_AGOSTINHO_14,6.2,-5.6442,-36.2471,2023-03-23,2023-06-27,NE,NE
746,PBSS03,SERRA_DO_SERIDO_III,44.0,-6.9689,-36.7932,2023-04-06,2023-04-25,NE,NE
747,BATU16,TUCANO_XVI,12.4,-11.36,-38.8041,2023-04-07,2023-04-25,NE,NE
748,PIOI09,OITIS_9,49.5,-9.0536,-41.7733,2023-04-12,2023-05-25,NE,NE
749,RNES17,SANTO_AGOSTINHO_17,43.4,-5.5884,-36.2616,2023-04-19,2023-05-25,NE,NE
750,BATU04,TUCANO_IV,43.4,-11.4201,-38.8129,2023-04-20,2023-04-25,NE,NE
751,RNLE12,VENTOS_DE_SANTA_LEIA,64.9,-5.7617,-36.0959,2023-04-26,2023-05-25,NE,NE
752,BAACA1,AURA_CAETITE_01,27.0,-13.4777,-42.5779,2023-05-05,2023-05-25,NE,NE
753,BAACA2,AURA_CAETITE_02,36.0,-13.4967,-42.5778,2023-05-05,2023-05-25,NE,NE
754,BAACA3,AURA_CAETITE_03,36.0,-13.5622,-42.5687,2023-05-05,2023-05-25,NE,NE
755,BAACA4,AURA_CAETITÉ_04,22.5,-13.6153,-42.5539,2023-05-05,2023-05-25,NE,NE
756,BAATN1,AURA_TANQUE_NOVO_01,27.0,-13.6406,-42.548,2023-05-05,2023-05-25,NE,NE
757,BAATN2,AURA_TANQUE_NOVO_02,18.0,-13.6772,-42.5732,2023-05-05,2023-05-25,NE,NE
758,BAATN3,AURA_TANQUE_NOVO_03,13.5,-13.6498,-42.5772,2023-05-05,2023-05-25,NE,NE
759,RNLE05,VENTOS_DE_SANTA_LEIA,67.5,-5.7851,-36.0726,2023-05-05,2023-05-25,NE,NE
760,RNAWD1,ANEMUS_WIND_1,37.8,-6.1549,-36.6207,2023-05-10,2023-05-25,NE,NE
761,RNAWD2,ANEMUS_WIND_2,46.2,-6.1479,-36.6304,2023-05-10,2023-05-25,NE,NE
762,BAEA56,ASSURUA_5_VI,34.8,-11.0238,-42.589,2023-05-13,2023-05-25,NE,NE
763,RNES13,SANTO_AGOSTINHO_13,37.2,-5.6474,-36.2469,2023-05-30,2023-06-27,NE,NE
764,RSEVSO,OSÓRIO,50.0,-29.9583,-50.2833,2006-06-29,2006-06-29,S,S
765,RSEVSS,SANGRADOURO,50.0,-29.9679,-50.2826,2006-09-30,2006-09-30,S,S
766,RSEVSI,ÍNDIOS,50.0,-29.9776,-50.2831,2006-12-13,2016-12-13,S,S
767,RSUECI,CIDREIRA,70.0,-30.0791,-50.1721,2011-05-21,2011-05-21,S,S
768,RSECC3,CERRO_CHATO_III,30.0,-30.8018,-55.7142,2011-06-07,2011-06-07,S,S
769,SCUROU,RIO_DO_OURO,30.0,-28.4466,-49.6076,2011-07-08,2011-07-08,S,S
770,SCUPPT,PÚLPITO,30.0,-28.471,-49.605,2011-08-19,2011-08-19,S,S
771,RSECC2,CERRO_CHATO_II,30.0,-30.8485,-55.6856,2011-08-31,2011-08-31,S,S
772,SCUBJD,BOM_JARDIM,30.0,-28.4414,-49.5706,2011-10-22,2011-10-22,S,S
773,SCECCA,CASCATA,6.0,-26.5889,-51.7427,2011-10-27,2019-11-11,S,S
774,SCECAL,CRUZ_ALTA,30.0,-26.5996,-51.7255,2011-11-09,2011-11-09,S,S
775,SCECBO,CAMPO_BELO,10.5,-26.6124,-51.7402,2011-11-15,2011-11-15,S,S
776,SCESTO,SALTO,30.0,-26.5885,-51.8138,2011-12-02,2011-12-02,S,S
777,SCEABA,AQUIBATÃ,30.0,-26.5849,-51.7534,2011-12-13,2011-12-13,S,S
778,SCEAMO,AMPARO,22.5,-26.6183,-51.5645,2011-12-24,2011-12-24,S,S
779,RSECC1,CERRO_CHATO_I,30.0,-30.8407,-55.7251,2012-01-06,2012-01-06,S,S
780,RSEVS3,SANGRADOURO_3,27.6,-29.9595,-50.3155,2012-05-22,2012-10-02,S,S
781,RSEVS2,SANGRADOURO_2,29.9,-29.939,-50.313,2012-10-02,2012-10-02,S,S
782,RSEOS2,OSÓRIO_2,27.6,-29.9535,-50.252,2012-12-19,2012-12-19,S,S
783,RSEOS3,OSÓRIO_3,29.9,-29.981,-50.255,2013-02-15,2013-02-15,S,S
784,RSACA5,ATLÂNTICA_V,30.0,-30.2915,-50.305,2013-11-14,2013-11-14,S,S
785,RSECDT,CERRO_DOS_TRINDADE,8.0,-30.8531,-55.7597,2013-11-29,2013-11-29,S,S
786,RSACA1,ATLÂNTICA_I,30.0,-30.3188,-50.3161,2014-02-19,2014-02-19,S,S
787,RSACA2,ATLÂNTICA_II,30.0,-30.3266,-50.3234,2014-03-01,2014-03-01,S,S
788,RSECC4,CERRO_CHATO_IV,10.0,-30.8348,-55.7568,2014-03-01,2014-10-01,S,S
789,RSACA4,ATLÂNTICA_IV,30.0,-30.2919,-50.335,2014-03-22,2014-03-22,S,S
790,RSECC5,CERRO_CHATO_V,12.0,-30.7974,-55.7562,2014-05-17,2014-05-17,S,S
791,RSECC6,CERRO_CHATO_VI,24.0,-30.783,-55.6905,2014-10-01,2014-10-01,S,S
792,RSUEXG,XANGRI-LÁ,31.7,-29.7767,-50.0736,2014-12-11,2014-12-11,S,S
793,RSEIN2,ÍNDIOS_2,29.9,-30.0035,-50.3319,2014-12-16,2014-12-16,S,S
794,RSEIN3,ÍNDIOS_3,23.0,-29.9831,-50.3324,2014-12-16,2014-12-16,S,S
795,RSREB1,REB_CASSINO_I,22.0,-32.2169,-52.204,2015-01-14,2015-01-14,S,S
796,RSREB2,REB_CASSINO_II,20.0,-32.2103,-52.212,2015-01-14,2015-01-14,S,S
797,RSREB3,REB_CASSINO_III,22.0,-32.2183,-52.203,2015-01-14,2015-01-14,S,S
798,RSCSE3,CORREDOR_SENANDES_II,27.0,-32.4127,-52.3555,2015-01-23,2015-01-23,S,S
799,RSCSE2,CORREDOR_SENANDES_II,21.6,-32.3862,-52.327,2015-02-04,2015-02-04,S,S
800,RSVC01,VERACE_I,20.0,-33.4952,-53.2711,2015-02-24,2015-02-24,S,S
801,RSVC02,VERACE_II,20.0,-33.5086,-53.2832,2015-02-24,2015-02-24,S,S
802,RSVC03,VERACE_III,26.0,-33.522,-53.279,2015-02-24,2015-02-24,S,S
803,RSVC04,VERACE_IV,30.0,-33.5516,-53.2273,2015-02-24,2015-02-24,S,S
804,RSVC05,VERACE_V,30.0,-33.5357,-53.3012,2015-02-24,2015-02-24,S,S
805,RSVC06,VERACE_VI,18.0,-33.5431,-53.2769,2015-02-24,2015-02-24,S,S
806,RSVC07,VERACE_VII,30.0,-33.5668,-53.246,2015-02-24,2015-02-24,S,S
807,RSVC08,VERACE_VIII,26.0,-33.553,-53.3108,2015-02-24,2015-02-24,S,S
808,RSVC09,VERACE_IX,30.0,-33.5767,-53.2953,2015-02-24,2015-02-24,S,S
809,RSVC10,VERACE_X,28.0,-33.5913,-53.2716,2015-02-24,2015-02-24,S,S
810,RSCSE4,CORREDOR_SENANDES_IV,29.7,-32.3689,-52.342,2015-04-11,2015-04-11,S,S
811,RSEP2B,EOL_PONTAL_2B,11.2,-30.2779,-50.7978,2015-04-25,2015-04-25,S,S
812,RSVAR1,VENTO_ARAGANO,29.7,-32.4145,-52.3729,2015-04-30,2015-04-30,S,S
813,RSCH05,EOL_CHUÍ_V,30.0,-33.6681,-53.4218,2015-05-23,2015-05-23,S,S
814,RSMN01,EÓLICA_MINUANO_I,22.0,-33.7228,-53.399,2015-05-26,2015-05-26,S,S
815,RSMN02,EÓLICA_MINUANO_II,24.0,-33.7174,-53.4167,2015-05-26,2015-05-26,S,S
816,RSCH04,EOL_CHUÍ_IV,22.0,-33.6647,-53.4164,2015-06-09,2015-06-09,S,S
817,RSCH01,EOL_CHUÍ_I,24.0,-33.6565,-53.3936,2015-06-16,2015-06-16,S,S
818,RSCH02,EOL_CHUÍ_II,22.0,-33.6594,-53.4003,2015-06-16,2015-06-16,S,S
819,RSEIB1,EOL_IBIRAPUITÃ_1,25.2,-30.7709,-55.6629,2015-08-27,2015-08-27,S,S
820,RSCH09,EOL_CHUÍ_09,17.9,-33.6877,-53.381,2015-10-22,2015-10-22,S,S
821,RSVC24,VERACE_24,19.69,-33.6392,-53.3098,2015-11-26,2015-11-26,S,S
822,RSVC25,VERACE_25,7.16,-33.6395,-53.3253,2015-11-26,2015-11-26,S,S
823,RSVC26,VERACE_26,14.32,-33.6531,-53.3044,2015-11-26,2015-11-26,S,S
824,RSVC27,VERACE_27,16.11,-33.6543,-53.3238,2015-11-26,2015-11-26,S,S
825,RSVC35,VERACE_35,12.53,-33.5847,-53.3595,2015-12-11,2015-12-11,S,S
826,RSECIN,CAPÃO_DO_INGLÊS,10.0,-30.9163,-55.7084,2015-12-16,2015-12-16,S,S
827,RSEGAL,GALPÕES,8.0,-30.8808,-55.6765,2015-12-16,2015-12-16,S,S
828,RSVC28,VERACE_28,12.53,-33.6341,-53.3538,2015-12-16,2015-12-16,S,S
829,RSVC29,VERACE_29,17.9,-33.618,-53.3574,2015-12-16,2015-12-16,S,S
830,RSVC30,VERACE_30,17.9,-33.6103,-53.3443,2015-12-16,2015-12-16,S,S
831,RSVC31,VERACE_31,8.95,-33.607,-53.3256,2015-12-16,2015-12-16,S,S
832,RSECSE,COXILHA_SECA,30.0,-30.8879,-55.7353,2015-12-22,2015-12-22,S,S
833,RSVC36,VERACE_36,21.48,-33.5957,-53.3681,2015-12-25,2015-12-25,S,S
834,RSVC34,VERACE_34,14.32,-33.5621,-53.3529,2016-01-07,2016-01-07,S,S
835,RSEP2A,PONTAL_2A,21.6,-30.2648,-50.7834,2016-12-02,2016-12-12,S,S
836,RSAG07,AURA_MANGUEIRA_VII,24.0,-33.1895,-52.9301,2016-12-27,2017-07-21,S,S
837,RSAR02,AURA_MIRIM_II,30.0,-33.138,-52.912,2016-12-27,2016-12-27,S,S
838,RSEP3B,PONTAL_3B,27.0,-30.2559,-50.7662,2017-01-17,2017-01-17,S,S
839,RSAG11,AURA_MANGUEIRA_XI,9.0,-33.1761,-52.9207,2017-02-02,2017-02-02,S,S
840,RSAR04,AURA_MIRIM_IV,15.0,-33.2078,-52.9297,2017-02-02,2017-02-02,S,S
841,RSAG15,AURA_MANGUEIRA_XV,18.0,-33.1634,-52.8937,2017-03-25,2017-03-25,S,S
842,RSAG13,AURA_MANGUEIRA_XIII,15.0,-33.1184,-52.9001,2017-05-13,2017-05-13,S,S
843,RSAG12,AURA_MANGUEIRA_XII,15.0,-33.0991,-52.8783,2017-06-02,2017-06-02,S,S
844,RSAR06,AURA_MIRIM_VI,9.0,-33.0984,-52.862,2017-07-08,2017-07-08,S,S
845,RSAR08,AURA_MIRIM_VIII,9.0,-33.0871,-52.8957,2017-07-08,2017-07-08,S,S
846,RSAG17,AURA_MANGUEIRA_XVII,15.0,-33.0951,-52.8435,2017-07-21,2017-07-21,S,S
847,RSAG04,AURA_MANGUEIRA_IV,21.0,-33.0656,-52.864,2017-09-02,2017-09-02,S,S
848,RSAG06,AURA_MANGUEIRA_VI,27.0,-33.0512,-52.8585,2017-09-15,2017-09-15,S,S
